[{"code":"10009","name":"Bt Merah Int","lat":1.2821,"lon":103.81722,"services":["5","16","16M","57","75","123","131","132","139","153","167","176","198","272","273","851"]},{"code":"10011","name":"Bef Neil Rd","lat":1.27774,"lon":103.8375,"services":["2","12","12e","54","122","124","143","147","174","174e","190","961","961M"]},{"code":"10017","name":"Aft Hosp Dr","lat":1.27832,"lon":103.83763,"services":["2","12","12e","54","61","122","124","143","147","166","167","174","174e","190","196","197","961","961M"]},{"code":"10018","name":"Outram Pk Stn Exit 6/SGH","lat":1.27901,"lon":103.8386,"services":["61","124","143","147","166","197","961","961M"]},{"code":"10021","name":"Blk 3","lat":1.27745,"lon":103.83839,"services":["61","166","167","196","197"]},{"code":"10041","name":"Bef Kampong Bahru Ter","lat":1.27606,"lon":103.83519,"services":["2","12","54","61","122","124","143","147","166","167","174","190","196","197","961","961M"]},{"code":"10049","name":"Opp Kampong Bahru Ter","lat":1.27623,"lon":103.83484,"services":["2","12","54","61","122","124","143","147","166","167","174","190","196","197","961","961M"]},{"code":"10051","name":"Blk 149","lat":1.27741,"lon":103.83214,"services":["120","147","167","196","197","961","961M"]},{"code":"10059","name":"Opp Blk 149","lat":1.2774,"lon":103.83275,"services":["120","147","167","196","197","961","961M"]},{"code":"10061","name":"Blk 140","lat":1.2786,"lon":103.82949,"services":["120","147","167","196","197","961","961M"]},{"code":"10069","name":"Opp Blk 140","lat":1.27855,"lon":103.83008,"services":["120","147","167","196","197","961","961M"]},{"code":"10071","name":"Blk 111","lat":1.28045,"lon":103.82639,"services":["75","120","121","147","167","175","196","197","961","961M"]},{"code":"10079","name":"Blk 201","lat":1.2804,"lon":103.82709,"services":["75","120","121","147","167","175","196","197","961","961M"]},{"code":"10081","name":"Opp Blk 120","lat":1.28228,"lon":103.82242,"services":["5","14","75","131","147","167","175","196","197","855","961","961M"]},{"code":"10089","name":"Blk 119","lat":1.28292,"lon":103.82166,"services":["5","14","75","131","147","167","175","196","197","855","961","961M"]},{"code":"10091","name":"Bt Merah Town Ctr","lat":1.28394,"lon":103.81784,"services":["14","16M","147","196","197","855","961","961M"]},{"code":"10099","name":"Opp Bt Merah Town Ctr","lat":1.28421,"lon":103.81766,"services":["14","16M","147","196","197","855","961","961M"]},{"code":"10101","name":"Opp Bt Merah Sec Sch","lat":1.28506,"lon":103.81378,"services":["14","123","139","147","153","196","197","198","855","961","961M"]},{"code":"10109","name":"Bt Merah Sec Sch","lat":1.28535,"lon":103.81371,"services":["14","147","196","197","855","961","961M"]},{"code":"10111","name":"Opp Blk 28","lat":1.28593,"lon":103.80935,"services":["14","123","147","153","196","197","198","855","961","961M"]},{"code":"10119","name":"Opp Pacific Tech Ctr","lat":1.28598,"lon":103.81123,"services":["14","123","139","147","153","196","197","198","855","961","961M"]},{"code":"10121","name":"Blk 126 CP","lat":1.2826,"lon":103.82891,"services":["75","121"]},{"code":"10129","name":"Blk 121","lat":1.28232,"lon":103.82857,"services":["75","121"]},{"code":"10131","name":"Opp Blk 2","lat":1.28619,"lon":103.80687,"services":["14","123","147","153","196","197","198","855","961","961M"]},{"code":"10139","name":"Blk 1","lat":1.28635,"lon":103.8081,"services":["14","123","147","153","196","197","198","855","961","961M"]},{"code":"10141","name":"Blk 18","lat":1.28584,"lon":103.83238,"services":["5","16","16M","33","63","75","122","123","123M","195","195A","851"]},{"code":"10149","name":"Blk 1","lat":1.28607,"lon":103.83283,"services":["5","16","16M","33","33A","63","75","122","123","123M","195","851"]},{"code":"10151","name":"Ctrl Green Condo","lat":1.28572,"lon":103.82853,"services":["5","16","16M","33","63","121","122","123","123M","195","195A","851"]},{"code":"10161","name":"Opp Tiong Bahru Stn/Plaza","lat":1.28593,"lon":103.82669,"services":["5","16","16M","33","63","121","122","123","123M","195","195A","851"]},{"code":"10169","name":"Tiong Bahru Stn/Plaza","lat":1.286,"lon":103.82748,"services":["5","16","16M","33","33A","63","121","122","123","123M","195","195A","851"]},{"code":"10171","name":"Opp Tiong Bahru Pk","lat":1.28737,"lon":103.82346,"services":["16","16M","32","33","63","64","120","851"]},{"code":"10179","name":"Tiong Bahru Pk","lat":1.28722,"lon":103.82396,"services":["16","16M","32","33","33A","63","64","120","851"]},{"code":"10181","name":"Bef Ar-Rabitah Mque","lat":1.2885,"lon":103.8211,"services":["32","33","63","64","120","132","145"]},{"code":"10189","name":"Blk 104A CP","lat":1.28859,"lon":103.82183,"services":["32","33","33A","63","64","120","132","145","145A"]},{"code":"10191","name":"Blk 78","lat":1.2886,"lon":103.81903,"services":["32","33","63","64","120","132","145"]},{"code":"10199","name":"Delta Swim Cplx","lat":1.28876,"lon":103.81937,"services":["32","33","33A","63","64","120","132","145","145A"]},{"code":"10201","name":"Opp Redhill Stn","lat":1.28928,"lon":103.81663,"services":["32","33","64","120","132","145"]},{"code":"10209","name":"Redhill Stn","lat":1.28955,"lon":103.81673,"services":["32","33","33A","64","120","132","145","145A"]},{"code":"10211","name":"BMW Eurokars Auto","lat":1.29075,"lon":103.81144,"services":["139"]},{"code":"10219","name":"Skoda S'pore/Volkswagen Grp","lat":1.29084,"lon":103.81181,"services":["139"]},{"code":"10221","name":"Ganges Ctr","lat":1.29033,"lon":103.83112,"services":["51","64","121","186"]},{"code":"10229","name":"Opp Harvest Mansions","lat":1.29052,"lon":103.83178,"services":["51","64","121","186"]},{"code":"10231","name":"Blk 51 CP","lat":1.29042,"lon":103.82788,"services":["51","64","121","186"]},{"code":"10239","name":"Blk 79","lat":1.29061,"lon":103.82865,"services":["51","64","121","186"]},{"code":"10241","name":"Gan Eng Seng Sec Sch","lat":1.29062,"lon":103.82362,"services":["51","122","139","186","970"]},{"code":"10249","name":"Opp Gan Eng Seng Sec Sch","lat":1.29088,"lon":103.82408,"services":["51","122","139","186","970"]},{"code":"10261","name":"Delta Sports Hall","lat":1.2909,"lon":103.82047,"services":["51","122","139","186","970"]},{"code":"10269","name":"Opp Delta Sports Hall","lat":1.29125,"lon":103.82058,"services":["51","122","139","186","970"]},{"code":"10271","name":"Opp Tanglin View","lat":1.29116,"lon":103.81758,"services":["51","122","139","186","970"]},{"code":"10279","name":"Tanglin View","lat":1.29151,"lon":103.81758,"services":["51","122","139","186","970"]},{"code":"10281","name":"SIS Bldg","lat":1.29154,"lon":103.81445,"services":["33","51","64","111","120","139","145","186","970"]},{"code":"10287","name":"Opp Cycle & Carriage","lat":1.29191,"lon":103.81341,"services":["33","33A","64","120","145"]},{"code":"10289","name":"Opp SIS Bldg","lat":1.29187,"lon":103.81441,"services":["51","111","139","186","970"]},{"code":"10291","name":"Opp Dawson Pl","lat":1.29216,"lon":103.81066,"services":["33","51","64","111","120","139","145","186","970"]},{"code":"10299","name":"Aft Dawson Pl","lat":1.29233,"lon":103.81146,"services":["33","33A","51","64","111","120","139","145","186","970"]},{"code":"10321","name":"Opp Grace Ably of God Ch","lat":1.29428,"lon":103.81588,"services":["32","111","122","132"]},{"code":"10329","name":"Crescent Girls' Sch","lat":1.29365,"lon":103.81597,"services":["32","111","122","132"]},{"code":"10331","name":"Bef Bt Merah Ctrl","lat":1.28136,"lon":103.81834,"services":["57","145","175","176","272","273"]},{"code":"10339","name":"Aft Bt Merah Ctrl","lat":1.28116,"lon":103.81857,"services":["57","145","145A","175","176","272","273"]},{"code":"10341","name":"Opp Blk 116","lat":1.28485,"lon":103.82059,"services":["16","16M","132","145","851"]},{"code":"10349","name":"Blk 116","lat":1.28498,"lon":103.82101,"services":["16","16M","132","145","145A","851"]},{"code":"10351","name":"Blk 95B","lat":1.28676,"lon":103.82205,"services":["16","16M","132","145","851"]},{"code":"10359","name":"Opp Blk 95C","lat":1.28724,"lon":103.82259,"services":["16","16M","132","145","145A","851"]},{"code":"10361","name":"Cendex Ctr","lat":1.28038,"lon":103.82353,"services":["65","121","123","123M","131","195","195A","855"]},{"code":"10369","name":"Opp Cendex Ctr","lat":1.28037,"lon":103.82387,"services":["65","121","123","123M","131","195","195A","855"]},{"code":"10371","name":"Blk 129","lat":1.28365,"lon":103.8245,"services":["5","14","65","120","123","123M","195","195A"]},{"code":"10379","name":"Blk 25B","lat":1.28374,"lon":103.8249,"services":["5","14","65","120","123","123M","195","195A"]},{"code":"10381","name":"Opp Blk 48","lat":1.28907,"lon":103.82559,"services":["14","32","64","65","121","122"]},{"code":"10389","name":"Blk 48","lat":1.28876,"lon":103.82573,"services":["14","32","64","65","121","122"]},{"code":"10391","name":"Opp Melati Blk 2","lat":1.27627,"lon":103.83126,"services":["61","124","143","166"]},{"code":"10399","name":"Melati Blk 2","lat":1.27588,"lon":103.83019,"services":["61","124","143","166"]},{"code":"10401","name":"Shriro Hse","lat":1.28817,"lon":103.81168,"services":["63"]},{"code":"10409","name":"Blk 50","lat":1.28788,"lon":103.81099,"services":["63"]},{"code":"10411","name":"Opp Blk 53","lat":1.28913,"lon":103.81281,"services":["63"]},{"code":"10419","name":"Blk 52","lat":1.28842,"lon":103.81258,"services":["63"]},{"code":"10421","name":"Blk 63B","lat":1.28896,"lon":103.81498,"services":["63","139"]},{"code":"10429","name":"Blk 54","lat":1.28928,"lon":103.81405,"services":["63","139"]},{"code":"10431","name":"Enabling Village","lat":1.2872,"lon":103.81398,"services":["139"]},{"code":"10439","name":"Opp Enabling Village","lat":1.28748,"lon":103.81419,"services":["139"]},{"code":"10441","name":"Opp Blk 44","lat":1.28657,"lon":103.81161,"services":["139"]},{"code":"10449","name":"Blk 44","lat":1.28667,"lon":103.81195,"services":["139"]},{"code":"10451","name":"Opp Blk 71","lat":1.28762,"lon":103.81726,"services":["63"]},{"code":"10459","name":"Blk 72","lat":1.28755,"lon":103.8164,"services":["63"]},{"code":"10461","name":"Opp Blk 95","lat":1.29681,"lon":103.81169,"services":["32","122"]},{"code":"10469","name":"Bef Margaret Dr","lat":1.29668,"lon":103.81217,"services":["32","122"]},{"code":"10471","name":"Bef Tanglin Rd","lat":1.2968,"lon":103.81468,"services":["32","122"]},{"code":"10479","name":"Aft Tanglin Rd","lat":1.29668,"lon":103.81547,"services":["32","122"]},{"code":"10481","name":"Opp Blk 73","lat":1.28784,"lon":103.81797,"services":["63"]},{"code":"10489","name":"Blk 73","lat":1.28812,"lon":103.81778,"services":["63"]},{"code":"10499","name":"Kampong Bahru Ter","lat":1.27585,"lon":103.83401,"services":["2","12","12e","54","120","122","174","174e","190"]},{"code":"10501","name":"Blk 104","lat":1.28106,"lon":103.82528,"services":["75","121","147","167","175","196","197","961","961M"]},{"code":"10519","name":"Blk 4","lat":1.29173,"lon":103.82612,"services":["14","32","65","139","970"]},{"code":"10599","name":"Opp Blk 36","lat":1.28883,"lon":103.80925,"services":["63"]},{"code":"10651","name":"Blk 161","lat":1.2833,"lon":103.81548,"services":["16M","123","139","153","198"]},{"code":"10659","name":"Blk 1003","lat":1.28362,"lon":103.81473,"services":["16M","123","139","153","198"]},{"code":"11001","name":"Opp Ghim Moh Ter","lat":1.31107,"lon":103.78916,"services":["92","100","111"]},{"code":"11009","name":"Ghim Moh Ter","lat":1.31107,"lon":103.78932,"services":["92","100","111"]},{"code":"11019","name":"Alexandra Ctrl","lat":1.2868,"lon":103.80566,"services":["14","123","147","153","196","197","198","855","961","961M"]},{"code":"11021","name":"Aft Queenstown NPC HQ","lat":1.28942,"lon":103.80229,"services":["51","61","93","100","123","147","153","196","198","855","961","961M"]},{"code":"11029","name":"Blk 166/Aft Mei Chin Rd","lat":1.29013,"lon":103.80202,"services":["51","61","64","93","100","123","147","153","196","198","855","961","961M"]},{"code":"11031","name":"Opp Queen's Cl","lat":1.2912,"lon":103.80046,"services":["51","61","93","100","123","147","153","196","198","855","961","961M"]},{"code":"11039","name":"Blk 19","lat":1.29246,"lon":103.79999,"services":["51","61","93","100","123","147","153","196","198","855","961","961M"]},{"code":"11041","name":"Aft C'wealth Dr","lat":1.29624,"lon":103.79952,"services":["51","93","100","123","147","153","196","198","855","961","961M"]},{"code":"11049","name":"Opp Blessed Sacrament Ch","lat":1.29546,"lon":103.79953,"services":["51","61","93","100","123","147","153","196","198","855","961","961M"]},{"code":"11051","name":"Opp Queenstown Polyclinic","lat":1.29872,"lon":103.8003,"services":["51","93","100","123","147","153","196","198","855","961","961M"]},{"code":"11059","name":"Queenstown Polyclinic","lat":1.29883,"lon":103.80097,"services":["51","61","93","100","123","147","153","196","198","855","961","961M"]},{"code":"11061","name":"Opp Queensway Sec Sch","lat":1.30266,"lon":103.80119,"services":["93","105","122","123","153","186","195","195A","855","961","961M"]},{"code":"11069","name":"Queensway Sec Sch","lat":1.30237,"lon":103.80162,"services":["93","105","123","153","186","855","961","961M"]},{"code":"11071","name":"Blk 97","lat":1.30621,"lon":103.80171,"services":["93","105","123","153","186","855","961","961M"]},{"code":"11079","name":"Opp Blk 95","lat":1.30544,"lon":103.80185,"services":["93","105","123","153","186","855","961","961M"]},{"code":"11081","name":"Viz Holland","lat":1.30852,"lon":103.80258,"services":["93","105","123","153","186","855","961","961M"]},{"code":"11089","name":"Opp Holland Hill Lodge","lat":1.30946,"lon":103.80334,"services":["93","105","123","153","186","855","961","961M"]},{"code":"11091","name":"Leedon Green","lat":1.31219,"lon":103.80367,"services":["48","93","153","165","174","186","855","961","961M"]},{"code":"11099","name":"Opp Leedon Green","lat":1.31305,"lon":103.80438,"services":["48","93","153","165","174","186","855","961","961M"]},{"code":"11101","name":"Empress Rd Mkt/FC","lat":1.31615,"lon":103.80596,"services":["48","93","153","165","174","186","855","961","961M"]},{"code":"11109","name":"Spanish Village","lat":1.31552,"lon":103.80574,"services":["48","93","153","165","174","186","855","961","961M"]},{"code":"11111","name":"Farrer Rd Stn Exit B","lat":1.3178,"lon":103.80772,"services":["48","93","153","165","174","186","855","961","961M"]},{"code":"11119","name":"Farrer Rd Stn Exit A","lat":1.31748,"lon":103.80786,"services":["48","93","153","165","174","186","855","961","961M"]},{"code":"11131","name":"Queens Condo","lat":1.29288,"lon":103.80707,"services":["51","111","145","186","195","195A","970"]},{"code":"11139","name":"Blk 53A CP","lat":1.2932,"lon":103.80745,"services":["51","111","145","186","970"]},{"code":"11141","name":"Queenstown Stn Exit A/D","lat":1.29464,"lon":103.80583,"services":["51","111","145","186","195","195A","970"]},{"code":"11149","name":"Queenstown Stn Exit B/C","lat":1.29506,"lon":103.80596,"services":["51","111","145","186","195","195A","970"]},{"code":"11151","name":"Blk 42","lat":1.29864,"lon":103.80248,"services":["51","111","145","186","195","195A","970"]},{"code":"11159","name":"Aft Ch of Our Saviour","lat":1.298,"lon":103.80363,"services":["51","111","145","186","195","195A","970"]},{"code":"11161","name":"C'wealth Stn Exit A/D","lat":1.30213,"lon":103.79839,"services":["32","61","100","105","111","145","147","196","198","970"]},{"code":"11169","name":"C'wealth Stn Exit B/C","lat":1.30271,"lon":103.79838,"services":["32","61","100","105","111","122","145","147","195","195A","196","198","970"]},{"code":"11171","name":"Opp Blk 7B","lat":1.30536,"lon":103.7948,"services":["32","61","100","105","111","145","147","196","198","970"]},{"code":"11179","name":"Blk 8","lat":1.30628,"lon":103.79428,"services":["32","61","100","105","111","145","147","196","198","970"]},{"code":"11181","name":"Opp Blk 43","lat":1.30722,"lon":103.79228,"services":["74","91","95","100","105","106","111","147","185","191","196","198","200","200A"]},{"code":"11189","name":"Blk 43","lat":1.3074,"lon":103.79254,"services":["32","74","91","95","100","105","106","111","145","147","185","191","196","198","200"]},{"code":"11191","name":"The Star Vista","lat":1.30802,"lon":103.78837,"services":["14","105","106","147","185"]},{"code":"11199","name":"Blk 15","lat":1.30838,"lon":103.78843,"services":["14","105","106","147","185"]},{"code":"11201","name":"CSC Dempsey Clubhse","lat":1.30693,"lon":103.81186,"services":["7","75","77","105","106","123","174"]},{"code":"11209","name":"Opp Peirce Rd","lat":1.30817,"lon":103.81038,"services":["7","7B","75","77","105","106","123","174"]},{"code":"11211","name":"Aft Peirce Rd","lat":1.30839,"lon":103.8094,"services":["7","75","77","105","106","123","174"]},{"code":"11219","name":"Great Eastern Mansions","lat":1.30989,"lon":103.80716,"services":["7","7B","75","77","105","106","123","174"]},{"code":"11221","name":"Lien Twrs","lat":1.31002,"lon":103.80551,"services":["7","75","77","105","106","123","174"]},{"code":"11229","name":"Sommerville Pk","lat":1.3106,"lon":103.80523,"services":["7","7B","75","77","105","106","123","174"]},{"code":"11231","name":"Aft Hyll on Holland","lat":1.31115,"lon":103.8012,"services":["7","48","75","77","106","165"]},{"code":"11239","name":"Fairlodge","lat":1.31153,"lon":103.80166,"services":["7","7B","48","75","77","106","165"]},{"code":"11259","name":"Opp Blk 21","lat":1.3112,"lon":103.79274,"services":["95"]},{"code":"11261","name":"Holland Village","lat":1.31223,"lon":103.79445,"services":["7","61","75","77","95","165","970"]},{"code":"11269","name":"Opp Holland Village","lat":1.31256,"lon":103.79454,"services":["7","7B","61","75","77","165","970"]},{"code":"11271","name":"Aft East Sussex Lane","lat":1.31473,"lon":103.79008,"services":["7","61","75","77","165","970"]},{"code":"11279","name":"Aft Coronation Rd West","lat":1.31467,"lon":103.79069,"services":["7","7B","61","75","77","165","970"]},{"code":"11281","name":"Aft Tan Boon Chong Ave","lat":1.31623,"lon":103.78852,"services":["7","61","75","165"]},{"code":"11289","name":"Opp Tan Boon Chong Ave","lat":1.31619,"lon":103.78904,"services":["7","7B","61","75","77","165","970"]},{"code":"11291","name":"Cold Storage Jelita","lat":1.31793,"lon":103.78592,"services":["7","61","75","156","165"]},{"code":"11299","name":"Opp Cold Storage Jelita","lat":1.31827,"lon":103.78559,"services":["7","7B","61","75","156","165"]},{"code":"11301","name":"Hse No. 578","lat":1.31804,"lon":103.7879,"services":["77","156","970"]},{"code":"11309","name":"Hse No. 589","lat":1.31862,"lon":103.78843,"services":["77","156","970"]},{"code":"11311","name":"Hse No. 532","lat":1.3199,"lon":103.78919,"services":["77","156","970"]},{"code":"11319","name":"Opp Hse No. 516","lat":1.32031,"lon":103.7896,"services":["77","156","970"]},{"code":"11321","name":"Opp Regent Villa","lat":1.32123,"lon":103.7901,"services":["77","156","970"]},{"code":"11329","name":"Regent Villa","lat":1.32236,"lon":103.79098,"services":["77","156","970"]},{"code":"11331","name":"Opp Dynasty Gdn II","lat":1.32321,"lon":103.79145,"services":["77","156","970"]},{"code":"11339","name":"Dynasty Lodge","lat":1.32399,"lon":103.79205,"services":["77","156","970"]},{"code":"11341","name":"Garlick Ville","lat":1.32552,"lon":103.79283,"services":["77","156","970"]},{"code":"11349","name":"Opp Garlick Ville","lat":1.32563,"lon":103.79304,"services":["77","156","970"]},{"code":"11351","name":"Blk 13","lat":1.30935,"lon":103.78945,"services":["92","100","111"]},{"code":"11359","name":"Opp Blk 13","lat":1.30931,"lon":103.78969,"services":["92","100","111"]},{"code":"11361","name":"Buona Vista Stn Exit C","lat":1.3065,"lon":103.79058,"services":["14","74","91","92","95","95B","191","196","198","200"]},{"code":"11369","name":"Buona Vista Stn Exit D","lat":1.30633,"lon":103.79085,"services":["14","74","91","92","92A","95","191","196","198","200","200A"]},{"code":"11379","name":"Buona Vista Ter","lat":1.30917,"lon":103.79236,"services":["32","48","74","91","145","185","191","200","200A"]},{"code":"11381","name":"Blk 10A","lat":1.30841,"lon":103.79328,"services":["48","74","91","95","185","191","200","200A"]},{"code":"11389","name":"Buona Vista CC","lat":1.30907,"lon":103.79293,"services":["32","48","74","91","145","185","191","200"]},{"code":"11401","name":"Holland V Stn/Blk 12","lat":1.30907,"lon":103.79507,"services":["48","61","95","106","970"]},{"code":"11409","name":"Blk 9","lat":1.30764,"lon":103.79433,"services":["61","106","970"]},{"code":"11419","name":"Holland V Stn Exit A","lat":1.31103,"lon":103.79604,"services":["48","61","106","970"]},{"code":"11429","name":"Opp Blk 115B","lat":1.30454,"lon":103.79836,"services":["122","195","195A"]},{"code":"11439","name":"Blk 92","lat":1.30606,"lon":103.8003,"services":["122","195","195A"]},{"code":"11441","name":"Blk 58","lat":1.2978,"lon":103.79754,"services":["61"]},{"code":"11449","name":"Blk 37B","lat":1.29841,"lon":103.7976,"services":["61"]},{"code":"11451","name":"Blk 72","lat":1.30035,"lon":103.79707,"services":["61"]},{"code":"11459","name":"Blk 50","lat":1.30097,"lon":103.79685,"services":["61"]},{"code":"11469","name":"Queensway Sec Sch","lat":1.30114,"lon":103.80189,"services":["32","122"]},{"code":"11471","name":"Opp The Fisherman Ch","lat":1.29952,"lon":103.80315,"services":["32","122"]},{"code":"11481","name":"Queenstown Lib","lat":1.29812,"lon":103.80601,"services":["32","122"]},{"code":"11489","name":"Blk 30","lat":1.29882,"lon":103.8044,"services":["32","122"]},{"code":"11491","name":"Opp Queenstown Pr Sch","lat":1.2971,"lon":103.80764,"services":["32","122"]},{"code":"11499","name":"Queenstown Pr Sch","lat":1.29685,"lon":103.80789,"services":["32","122"]},{"code":"11511","name":"Alexandra Hosp","lat":1.28595,"lon":103.80252,"services":["14","33","33A","51","61","93","100","120","195","195A","197"]},{"code":"11519","name":"Opp Queensway Shop Ctr","lat":1.28666,"lon":103.80334,"services":["14","33","51","61","93","100","120","195","195A","197"]},{"code":"11521","name":"Anchorpoint","lat":1.28857,"lon":103.80543,"services":["33","33A","64","120","195","195A"]},{"code":"11529","name":"Bef IKEA Ind Bldg","lat":1.28903,"lon":103.80609,"services":["33","120","195","195A"]},{"code":"11531","name":"Opp Lea Hin Hardware Fty","lat":1.29109,"lon":103.80753,"services":["33","33A","64","120","195","195A"]},{"code":"11539","name":"Lea Hin Hardware Fty","lat":1.29117,"lon":103.80786,"services":["33","120","195","195A"]},{"code":"11541","name":"Opp Queens","lat":1.29236,"lon":103.80579,"services":["64"]},{"code":"11551","name":"Tiong Ghee Tp","lat":1.29127,"lon":103.8041,"services":["64"]},{"code":"11561","name":"Blk 166","lat":1.29107,"lon":103.80248,"services":["64"]},{"code":"11579","name":"Blk 158","lat":1.29256,"lon":103.80303,"services":["64"]},{"code":"11589","name":"Blk 157","lat":1.29299,"lon":103.80401,"services":["64"]},{"code":"11599","name":"Blk 153","lat":1.29421,"lon":103.80315,"services":["64"]},{"code":"11609","name":"Blk 163","lat":1.29189,"lon":103.80212,"services":["64"]},{"code":"12021","name":"Bef Moonbeam Wk","lat":1.31908,"lon":103.78243,"services":["7","61","75","156","165"]},{"code":"12029","name":"Opp Moonbeam Wk","lat":1.31958,"lon":103.78244,"services":["7","7B","61","75","156","165"]},{"code":"12031","name":"Pandan Valley Condo","lat":1.3208,"lon":103.77963,"services":["7","61","75","92","156","165"]},{"code":"12039","name":"Opp Pandan Valley Condo","lat":1.32105,"lon":103.78019,"services":["7","7B","61","75","156","165"]},{"code":"12041","name":"Aft Pandan Valley","lat":1.32056,"lon":103.77642,"services":["7","61","75","156","165"]},{"code":"12049","name":"Opp Pandan Valley","lat":1.32091,"lon":103.77656,"services":["7","7B","61","75","156","165"]},{"code":"12051","name":"Pine Gr Condo","lat":1.32043,"lon":103.77506,"services":["7","61","75","156","165"]},{"code":"12059","name":"Opp Pine Gr Condo","lat":1.32073,"lon":103.77516,"services":["7","7B","61","75","156","165"]},{"code":"12061","name":"Blk 109","lat":1.32179,"lon":103.77087,"services":["52","61","74","75","151","154","154B","184"]},{"code":"12069","name":"Opp Blk 109A","lat":1.32143,"lon":103.77104,"services":["52","61","74","75","151","154","184"]},{"code":"12071","name":"Blk 116","lat":1.32402,"lon":103.77219,"services":["52","61","74","75","151","154","154B","184"]},{"code":"12079","name":"Opp Blk 116","lat":1.32383,"lon":103.77263,"services":["52","61","74","75","151","154","184"]},{"code":"12081","name":"Clementi N'hood Pk","lat":1.32527,"lon":103.77424,"services":["52","61","74","75","151","154","154B","184"]},{"code":"12089","name":"Opp Maju Camp","lat":1.32626,"lon":103.77571,"services":["52","61","74","75","151","154","184"]},{"code":"12091","name":"SIM Campus","lat":1.32918,"lon":103.77715,"services":["52","61","74","75","151","154","154B","184"]},{"code":"12099","name":"Opp SIM Campus","lat":1.32784,"lon":103.7767,"services":["52","61","74","75","151","154","184"]},{"code":"12101","name":"Ngee Ann Poly","lat":1.33244,"lon":103.77769,"services":["52","61","74","75","151","154","154B","184"]},{"code":"12109","name":"Opp Ngee Ann Poly","lat":1.33082,"lon":103.77801,"services":["52","61","74","75","151","154","184"]},{"code":"12111","name":"Bef Clementi Rd","lat":1.31912,"lon":103.77223,"services":["7","61","75","156","165"]},{"code":"12119","name":"Police KINS Trg Camp","lat":1.31965,"lon":103.77279,"services":["7","7B","61","75","156","165"]},{"code":"12121","name":"Blk 7","lat":1.31165,"lon":103.78715,"services":["92","100","111"]},{"code":"12129","name":"Blk 3","lat":1.31182,"lon":103.78733,"services":["92"]},{"code":"12131","name":"Aft Grove Ave","lat":1.31416,"lon":103.78506,"services":["92"]},{"code":"12139","name":"Aft Mt Sinai Lane","lat":1.31453,"lon":103.78504,"services":["92"]},{"code":"12141","name":"Opp Henry Pk","lat":1.31574,"lon":103.78239,"services":["92"]},{"code":"12149","name":"Henry Pk","lat":1.31577,"lon":103.78266,"services":["92"]},{"code":"12151","name":"Bef Moonbeam Terr","lat":1.31865,"lon":103.78128,"services":["92"]},{"code":"12169","name":"Pandan Valley","lat":1.31917,"lon":103.77724,"services":["92"]},{"code":"12179","name":"Montview","lat":1.3168,"lon":103.77699,"services":["92"]},{"code":"12189","name":"Bef Mt Sinai Dr","lat":1.31643,"lon":103.78022,"services":["92"]},{"code":"12199","name":"Opp Village Twr","lat":1.31548,"lon":103.77821,"services":["92"]},{"code":"12201","name":"LogisHub @ Clementi","lat":1.32671,"lon":103.764,"services":["185","189"]},{"code":"12209","name":"Opp LogisHub @ Clementi","lat":1.32653,"lon":103.7643,"services":["185","189"]},{"code":"12211","name":"Bef Mt Sinai Wk","lat":1.31721,"lon":103.78071,"services":["92"]},{"code":"13011","name":"Napier Stn Exit 2","lat":1.3065,"lon":103.81932,"services":["7","S52","75","77","105","106","123","174","174e"]},{"code":"13019","name":"Napier Stn Exit 1","lat":1.30674,"lon":103.82013,"services":["7","7B","S52","75","77","105","106","123","174","174e"]},{"code":"13021","name":"Aft Min of Foreign Affairs","lat":1.30634,"lon":103.81431,"services":["7","75","77","105","106","123","174"]},{"code":"13029","name":"Bef Tyersall Ave","lat":1.30672,"lon":103.81452,"services":["7","7B","75","77","105","106","123","174"]},{"code":"13031","name":"Opp Chatsworth Rd","lat":1.29913,"lon":103.81707,"services":["111","132"]},{"code":"13039","name":"Bef Chatsworth Rd","lat":1.29982,"lon":103.81744,"services":["111","132"]},{"code":"13041","name":"Aft Camp Rd","lat":1.30243,"lon":103.81968,"services":["111","132"]},{"code":"13049","name":"Bef Rochalie Dr","lat":1.30262,"lon":103.82045,"services":["111","132"]},{"code":"13051","name":"Opp Valley Pt","lat":1.29334,"lon":103.82637,"services":["14","32","65","139","970"]},{"code":"13059","name":"Valley Pt","lat":1.29328,"lon":103.82663,"services":["14","32","65","139","970"]},{"code":"13062","name":"Stellar RV","lat":1.29477,"lon":103.82853,"services":["32","139","970"]},{"code":"13063","name":"RV Suites","lat":1.29535,"lon":103.82964,"services":["14","65"]},{"code":"13069","name":"RV Residences","lat":1.29488,"lon":103.82881,"services":["14","32","65","139","970"]},{"code":"13071","name":"Great World Stn Exit 5","lat":1.29634,"lon":103.83294,"services":["32","54","139","195"]},{"code":"13079","name":"Great World Stn Exit 4","lat":1.29612,"lon":103.83229,"services":["32","54","139","195","195A"]},{"code":"13081","name":"St. Thomas Wk","lat":1.29591,"lon":103.83624,"services":["32","54","139","195"]},{"code":"13089","name":"Opp St. Thomas Wk","lat":1.29575,"lon":103.83604,"services":["32","54","139","195","195A"]},{"code":"13091","name":"Aft Kim Yam Rd","lat":1.29593,"lon":103.83938,"services":["32","54","139","195"]},{"code":"13099","name":"Bef Kim Yam Rd","lat":1.29578,"lon":103.83961,"services":["32","54","139","195","195A"]},{"code":"13101","name":"Opp Mohd Sultan Rd","lat":1.29414,"lon":103.84231,"services":["32","54","139","195"]},{"code":"13109","name":"UE Sq/Bef Mohd Sultan Rd","lat":1.29351,"lon":103.84272,"services":["32","54","139","195","195A"]},{"code":"13119","name":"Great World Stn Exit 3","lat":1.29425,"lon":103.8325,"services":["5","16","16M","S52","75","175","195","195A","970"]},{"code":"13121","name":"Opp Great World City","lat":1.29409,"lon":103.83084,"services":["5","16","16M","75","175","195","970"]},{"code":"13141","name":"Aft Zion Full Gospel Ch","lat":1.29764,"lon":103.82998,"services":["5","14","16","16M","54","65","75","175"]},{"code":"13159","name":"Bef Zion Full Gospel Ch","lat":1.29796,"lon":103.83053,"services":["5","14","16","16M","54","65","75","175"]},{"code":"13169","name":"Grange 80 Condo","lat":1.2991,"lon":103.82839,"services":["75"]},{"code":"13171","name":"Gramercy Pk","lat":1.29907,"lon":103.82651,"services":["75"]},{"code":"13179","name":"Cliveden At Grange","lat":1.29926,"lon":103.82665,"services":["75"]},{"code":"13181","name":"Aft One Tree Hill","lat":1.30023,"lon":103.82403,"services":["75"]},{"code":"13189","name":"Bef One Tree Hill","lat":1.30038,"lon":103.82415,"services":["75"]},{"code":"13191","name":"Opp Orchard Stn Exit 12","lat":1.30246,"lon":103.82978,"services":["5","14","16","16M","S52","54","65","175"]},{"code":"13199","name":"Aft Orchard Stn Exit 12","lat":1.30213,"lon":103.82988,"services":["5","14","16","16M","S52","54","65","175"]},{"code":"13201","name":"British High Commission","lat":1.30454,"lon":103.8221,"services":["111","132"]},{"code":"13209","name":"Opp British High Comsn","lat":1.30403,"lon":103.82206,"services":["111","132"]},{"code":"14009","name":"HarbourFront Int","lat":1.26704,"lon":103.81901,"services":["65","80","93","123M","124","188","188e","855","963","963e"]},{"code":"14011","name":"Bef Mt Faber Lodge","lat":1.26795,"lon":103.82553,"services":["61","65","123","123M","143","166","855"]},{"code":"14019","name":"Opp Mt Faber Lodge","lat":1.26849,"lon":103.82572,"services":["61","65","123","123M","143","166","855"]},{"code":"14021","name":"The Pearl @ Mt Faber","lat":1.27133,"lon":103.82478,"services":["65","123","123M","124","855"]},{"code":"14029","name":"Blk 105","lat":1.27247,"lon":103.82419,"services":["65","123","123M","124","855"]},{"code":"14031","name":"St. Theresa's Convent","lat":1.27624,"lon":103.82306,"services":["65","121","123","123M","131","195","195A","855"]},{"code":"14039","name":"Opp St. Theresa's Convent","lat":1.27664,"lon":103.82346,"services":["65","121","123","123M","131","195","195A","855"]},{"code":"14041","name":"Blk 54","lat":1.27327,"lon":103.81247,"services":["120","131","145","176","273"]},{"code":"14049","name":"Opp Blk 55","lat":1.27324,"lon":103.81304,"services":["120","131","145","176"]},{"code":"14051","name":"Aft Telok Blangah Hts","lat":1.27585,"lon":103.81516,"services":["124","131","145","176","273"]},{"code":"14059","name":"Bef Telok Blangah Hts","lat":1.27603,"lon":103.81561,"services":["124","131","145","176","273"]},{"code":"14061","name":"Opp Former Railway Stn","lat":1.27231,"lon":103.83862,"services":["10","30","57","80","97","97e","100","131","145"]},{"code":"14069","name":"Former Railway Stn","lat":1.27254,"lon":103.83641,"services":["10","30","57","80","97","97e","100","131","145"]},{"code":"14071","name":"Keppel Workshop","lat":1.2722,"lon":103.8339,"services":["10","30","57","80","97","100","131","145"]},{"code":"14081","name":"Tg Pagar DP Blk F5","lat":1.2709,"lon":103.83089,"services":["10","30","57","80","97","100","131","145"]},{"code":"14089","name":"Opp Tg Pagar DP Blk F5","lat":1.27046,"lon":103.82979,"services":["10","30","57","80","97","100","131","145"]},{"code":"14101","name":"Opp Keppel DP Blk 517","lat":1.26838,"lon":103.82826,"services":["10","30","57","80","97","100","131","145"]},{"code":"14109","name":"Keppel DP Blk 517","lat":1.26805,"lon":103.82722,"services":["10","30","57","80","97","100","131","145"]},{"code":"14119","name":"Opp VivoCity","lat":1.26592,"lon":103.82228,"services":["10","30","30e","57","61","65","80","97","97e","100","123M","131","143","145","166","855"]},{"code":"14121","name":"Opp HarbourFront Int","lat":1.26591,"lon":103.81926,"services":["10","30","30e","57","61","97","97e","100","131","143","145","166"]},{"code":"14129","name":"HarbourFront Stn Exit A","lat":1.26608,"lon":103.81978,"services":["10","30","30e","57","61","65","80","97","97e","100","123M","131","143","145","166","855"]},{"code":"14131","name":"Caribbean at Keppel Bay","lat":1.2674,"lon":103.81675,"services":["10","30","57","61","93","97","100","124","131","143","145","166","188","963"]},{"code":"14139","name":"Bef Seah Im Rd","lat":1.26864,"lon":103.81547,"services":["10","30","57","61","93","97","100","124","131","143","145","166","188","963"]},{"code":"14141","name":"HarbourFront Stn/Vivocity","lat":1.26552,"lon":103.82211,"services":["10","30","30e","57","61","65","80","97","97e","100","123M","131","143","145","166","855"]},{"code":"14151","name":"Opp Hotel Faber Pk","lat":1.26965,"lon":103.81294,"services":["10","30","57","61","93","97","100","124","131","143","145","166","188","963"]},{"code":"14159","name":"Hotel Faber Pk","lat":1.26994,"lon":103.81315,"services":["10","30","57","61","93","97","100","124","131","143","145","166","188","963"]},{"code":"14161","name":"Telok Blangah Stn","lat":1.27076,"lon":103.8101,"services":["10","30","57","61","93","97","97e","100","120","143","166","176","188","963"]},{"code":"14169","name":"Opp Telok Blangah Stn","lat":1.27119,"lon":103.80942,"services":["10","30","57","61","93","97","97e","100","120","143","166","176","188","963"]},{"code":"14171","name":"Opp Yeo's Bldg","lat":1.27146,"lon":103.80655,"services":["10","30","57","61","93","97","100","120","143","166","176","188","963"]},{"code":"14179","name":"Yeo's Bldg","lat":1.27188,"lon":103.8063,"services":["10","30","57","61","93","97","100","120","143","166","176","188","963"]},{"code":"14189","name":"Aft Alexandra Rd","lat":1.27269,"lon":103.80398,"services":["10","30","57","61","93","97","100","120","143","166","176","188","963"]},{"code":"14191","name":"Blk 105 CP","lat":1.28122,"lon":103.81211,"services":["57","175","195","195A"]},{"code":"14199","name":"Blk 118","lat":1.28132,"lon":103.81275,"services":["57","175","195","195A"]},{"code":"14201","name":"Blk 110","lat":1.28167,"lon":103.80915,"services":["57","175","195","195A"]},{"code":"14209","name":"Aft Hewlett Packard","lat":1.28176,"lon":103.80959,"services":["57","175","195","195A"]},{"code":"14211","name":"ISS Intl Sch","lat":1.28161,"lon":103.80522,"services":["57","175","195","195A"]},{"code":"14219","name":"Opp Blk 114","lat":1.28219,"lon":103.80685,"services":["57","175","195","195A"]},{"code":"14221","name":"Opp Ch of St. Teresa","lat":1.27359,"lon":103.82893,"services":["61","124","143","166"]},{"code":"14229","name":"Ch of St. Teresa","lat":1.27371,"lon":103.82858,"services":["61","124","143","166"]},{"code":"14231","name":"Keppel DP Blk 519","lat":1.27101,"lon":103.82667,"services":["61","124","143","166"]},{"code":"14239","name":"Opp Keppel DP Blk 519","lat":1.27178,"lon":103.82714,"services":["61","124","143","166"]},{"code":"14241","name":"Opp Blk 1","lat":1.27914,"lon":103.81687,"services":["57","145","175","176","195","195A","272","273"]},{"code":"14249","name":"Blk 1","lat":1.27947,"lon":103.8174,"services":["145","145A","176","195","195A","272","273"]},{"code":"14259","name":"Blk 11","lat":1.27785,"lon":103.81866,"services":["121","272"]},{"code":"14269","name":"Blk 10","lat":1.27758,"lon":103.81999,"services":["121","272"]},{"code":"14271","name":"Al-Amin Mque","lat":1.27568,"lon":103.81915,"services":["124","131","195","195A"]},{"code":"14279","name":"Blk 25","lat":1.27592,"lon":103.81921,"services":["121","124","131","195","195A","272"]},{"code":"14281","name":"SAFRA Mt Faber","lat":1.277,"lon":103.81804,"services":["124","131","195","195A"]},{"code":"14291","name":"Blk 27","lat":1.27468,"lon":103.82133,"services":["121","124","131","195","195A","272"]},{"code":"14299","name":"Opp Blk 27","lat":1.27489,"lon":103.82127,"services":["124","131","195","195A"]},{"code":"14309","name":"Blk 41","lat":1.27129,"lon":103.82303,"services":["121","272"]},{"code":"14319","name":"Blk 28","lat":1.27348,"lon":103.82064,"services":["121","272"]},{"code":"14329","name":"Blk 67","lat":1.27455,"lon":103.80943,"services":["120","273"]},{"code":"14331","name":"Opp Blk 70B","lat":1.27695,"lon":103.81107,"services":["120","124"]},{"code":"14339","name":"Blk 70A","lat":1.27666,"lon":103.81125,"services":["120","124","273"]},{"code":"14341","name":"Opp Blk 59","lat":1.27593,"lon":103.81347,"services":["120","124"]},{"code":"14349","name":"Blk 59","lat":1.27579,"lon":103.8134,"services":["120","124","273"]},{"code":"14351","name":"Aft Blk 48","lat":1.27275,"lon":103.81036,"services":["124"]},{"code":"14359","name":"Blk 50","lat":1.27289,"lon":103.81035,"services":["124","273"]},{"code":"14369","name":"The Interlace","lat":1.28154,"lon":103.80366,"services":["57","175","195","195A"]},{"code":"14379","name":"Blk 40","lat":1.27244,"lon":103.82379,"services":["65","121","123","123M","124","272","855"]},{"code":"14381","name":"Blk 109","lat":1.27413,"lon":103.82554,"services":["123","123M","131"]},{"code":"14389","name":"Aft Radin Mas Pr Sch","lat":1.27428,"lon":103.82501,"services":["123","123M","131"]},{"code":"14391","name":"Opp Blk 85","lat":1.27791,"lon":103.80859,"services":["120","124"]},{"code":"14399","name":"Blk 85","lat":1.27764,"lon":103.80859,"services":["124","273"]},{"code":"14471","name":"Blk 114","lat":1.28201,"lon":103.80665,"services":["57","175","195","195A"]},{"code":"14489","name":"Blk 36 Mkt/FC","lat":1.27238,"lon":103.82159,"services":["121","272"]},{"code":"14491","name":"Opp Telok Blangah Mkt/FC","lat":1.27279,"lon":103.80795,"services":["120","124"]},{"code":"14499","name":"Telok Blangah Mkt/FC","lat":1.27291,"lon":103.80782,"services":["124"]},{"code":"14501","name":"Opp Blk 91A","lat":1.27687,"lon":103.80648,"services":["120","124"]},{"code":"14509","name":"Blk 92B","lat":1.27565,"lon":103.80681,"services":["124"]},{"code":"14519","name":"Resorts World Sentosa","lat":1.25671,"lon":103.82084,"services":["123"]},{"code":"14521","name":"Village Hotel","lat":1.2536,"lon":103.82043,"services":["123"]},{"code":"14529","name":"Opp Village Hotel","lat":1.25323,"lon":103.82122,"services":["123"]},{"code":"14539","name":"Beach Stn Ter","lat":1.25143,"lon":103.81855,"services":["123"]},{"code":"15041","name":"Alexandra Retail Ctr","lat":1.27463,"lon":103.80189,"services":["51","57","61","93","97","97e","100","120","166","175","963","963e"]},{"code":"15049","name":"Opp Alexandra Retail Ctr","lat":1.27459,"lon":103.80216,"services":["51","57","61","93","97","97e","100","120","166","175","963","963e"]},{"code":"15051","name":"Alexandra Pt","lat":1.27698,"lon":103.80238,"services":["51","57","61","93","97","97e","100","120","166","175","963","963e"]},{"code":"15059","name":"Opp Alexandra Pt","lat":1.27686,"lon":103.8027,"services":["51","57","61","93","97","97e","100","120","166","175","963","963e"]},{"code":"15071","name":"Opp Lor Sarhad","lat":1.28142,"lon":103.78701,"services":["200"]},{"code":"15079","name":"Aft Lor Sarhad","lat":1.28078,"lon":103.78683,"services":["200","200A"]},{"code":"15091","name":"Opp Natl Leadership Inst","lat":1.28291,"lon":103.78781,"services":["200"]},{"code":"15099","name":"Natl Leadership Inst","lat":1.28306,"lon":103.78789,"services":["200","200A"]},{"code":"15101","name":"Opp LP 31","lat":1.28618,"lon":103.78562,"services":["200"]},{"code":"15109","name":"LP 30","lat":1.28592,"lon":103.78581,"services":["200","200A"]},{"code":"15111","name":"Sci Pk 2/The Galen","lat":1.28676,"lon":103.78484,"services":["200"]},{"code":"15119","name":"Opp Sci Pk 2/The Galen","lat":1.28704,"lon":103.78501,"services":["200","200A"]},{"code":"15121","name":"Sci Pk 2/The Gemini","lat":1.28894,"lon":103.78373,"services":["200"]},{"code":"15129","name":"Opp Sci Pk 2/The Gemini","lat":1.28916,"lon":103.78402,"services":["200","200A"]},{"code":"15131","name":"Kent Ridge Stn","lat":1.29254,"lon":103.78449,"services":["92","92B","200"]},{"code":"15139","name":"Kent Ridge Stn Exit B","lat":1.29241,"lon":103.78458,"services":["92","92A","92B","200","200A"]},{"code":"15141","name":"Labrador Pk Stn","lat":1.27276,"lon":103.80096,"services":["10","30","30e","51","143","175","176","188"]},{"code":"15149","name":"Opp Labrador Pk Stn","lat":1.27342,"lon":103.80056,"services":["10","30","30e","51","143","175","176","188","188e"]},{"code":"15151","name":"Opp Mapletree Biz City","lat":1.27389,"lon":103.79822,"services":["10","30","30e","51","143","175","176","188"]},{"code":"15159","name":"Mapletree Business City","lat":1.27426,"lon":103.79839,"services":["10","30","30e","51","143","175","176","188","188e"]},{"code":"15161","name":"Opp HarbourSide Bldg 2","lat":1.27444,"lon":103.79666,"services":["10","30","30e","51","143","175","176","188"]},{"code":"15169","name":"HarbourSide Bldg 2","lat":1.27481,"lon":103.79674,"services":["10","30","30e","51","143","175","176","188","188e"]},{"code":"15181","name":"1A Sci Pk Dr (Geneo)","lat":1.29108,"lon":103.78541,"services":["92","92A","92B"]},{"code":"15189","name":"Ascent","lat":1.2908,"lon":103.7855,"services":["92","92B"]},{"code":"15191","name":"Pasir Panjang Stn/FC","lat":1.27581,"lon":103.79264,"services":["10","30","51","143","175","176","188"]},{"code":"15199","name":"Opp Currency Hse","lat":1.27604,"lon":103.79318,"services":["10","30","51","143","175","176","188","188e"]},{"code":"15201","name":"Aft Pasir Panjang Stn","lat":1.27681,"lon":103.78971,"services":["10","30","30e","51","143","175","176","188"]},{"code":"15209","name":"Bef Pasir Panjang Stn","lat":1.27707,"lon":103.79023,"services":["10","30","30e","51","143","175","176","188"]},{"code":"15211","name":"Opp Pasir View Pk","lat":1.27792,"lon":103.78643,"services":["175","176"]},{"code":"15219","name":"Pasir View Pk","lat":1.27818,"lon":103.78701,"services":["10","30","51","143","175","176","188"]},{"code":"15221","name":"Aft Sth Buona Vista Rd","lat":1.2795,"lon":103.78549,"services":["10","30","51","143","188","200","200A"]},{"code":"15229","name":"Bef Sth Buona Vista Rd","lat":1.27938,"lon":103.78573,"services":["10","30","51","143","188","200"]},{"code":"16009","name":"Kent Ridge Ter","lat":1.29425,"lon":103.76988,"services":["10","33","33A","95","95B","151","200","200A","201"]},{"code":"16011","name":"Opp Haw Par Villa Stn","lat":1.28278,"lon":103.78187,"services":["10","30","30e","51","143","188","200","200A"]},{"code":"16019","name":"Haw Par Villa Stn","lat":1.28278,"lon":103.78218,"services":["10","30","30e","51","143","188","200"]},{"code":"16021","name":"Opp Gloria Mansion","lat":1.28626,"lon":103.77981,"services":["10","30","51","143","188","200","200A"]},{"code":"16029","name":"Gloria Mansion","lat":1.28608,"lon":103.78022,"services":["10","30","51","143","188","200"]},{"code":"16031","name":"Opp S'pore Science Pk II","lat":1.28801,"lon":103.77846,"services":["10","30","30e","51","143","188","200","200A"]},{"code":"16039","name":"S'pore Science Pk II","lat":1.28799,"lon":103.77872,"services":["10","30","30e","51","143","188","200"]},{"code":"16041","name":"Opp Luxe Ville","lat":1.28931,"lon":103.7766,"services":["10","30","51","143","183","188","200","200A"]},{"code":"16049","name":"Whitehaven","lat":1.28911,"lon":103.77739,"services":["10","30","51","143","183","188","200"]},{"code":"16051","name":"The Crystal Tabernacle Ch","lat":1.29015,"lon":103.77426,"services":["10","30","51","143","183","188","200","200A"]},{"code":"16059","name":"Jamiyah Halfway Hse","lat":1.28967,"lon":103.77593,"services":["10","30","51","143","183","188","200"]},{"code":"16061","name":"Opp Heng Mui Keng Terr","lat":1.29046,"lon":103.77356,"services":["10","30","30e","51","143","183","188","200","200A"]},{"code":"16069","name":"Heng Mui Keng Terr","lat":1.29065,"lon":103.7737,"services":["10","30","30e","51","143","183","188","200"]},{"code":"16071","name":"Opp Pasir Panjang PO","lat":1.2913,"lon":103.77117,"services":["10","30","51","143","183","188","200","200A"]},{"code":"16079","name":"Bef Pasir Panjang PO","lat":1.29141,"lon":103.7713,"services":["10","30","51","143","183","188","200"]},{"code":"16081","name":"Aft Palm Green Condo","lat":1.29196,"lon":103.76866,"services":["10","30","51","143","183","188","200","200A"]},{"code":"16089","name":"Aft Clementi Rd","lat":1.29201,"lon":103.76908,"services":["10","30","51","143","183","188","200"]},{"code":"16091","name":"NUS Sports Centre","lat":1.29948,"lon":103.77923,"services":["97","197","198","963","963e"]},{"code":"16099","name":"Opp NUS Sports Centre","lat":1.30061,"lon":103.77815,"services":["97","197","198","963","963e"]},{"code":"16101","name":"Inst of Micro-electronics","lat":1.28924,"lon":103.77969,"services":["183"]},{"code":"16109","name":"The Alpha","lat":1.28911,"lon":103.77951,"services":["183"]},{"code":"16111","name":"Aries","lat":1.28701,"lon":103.78283,"services":["183"]},{"code":"16119","name":"Teletech Pk","lat":1.28698,"lon":103.78261,"services":["183"]},{"code":"16121","name":"Galen","lat":1.28651,"lon":103.78345,"services":["183"]},{"code":"16131","name":"Opp Kent Ridge Ter","lat":1.29488,"lon":103.76935,"services":["33","33A","183","188"]},{"code":"16139","name":"Bef Kent Ridge Ter","lat":1.29538,"lon":103.76975,"services":["183","188","188e"]},{"code":"16141","name":"Tentera Diraja Mque","lat":1.29787,"lon":103.7696,"services":["33","33A","183","188"]},{"code":"16149","name":"SDE3","lat":1.29782,"lon":103.76994,"services":["33","96","96A","183","188","188e"]},{"code":"16151","name":"The Japanese Pr Sch","lat":1.30076,"lon":103.76994,"services":["33","33A","183","188"]},{"code":"16159","name":"Coll of Design & Engrg","lat":1.3006,"lon":103.77017,"services":["33","96","96A","183","188","188e"]},{"code":"16161","name":"NUS Museums","lat":1.30108,"lon":103.77369,"services":["151"]},{"code":"16169","name":"NUS Raffles Hall","lat":1.30098,"lon":103.7727,"services":["96","96A","96B","151"]},{"code":"16171","name":"Yusof Ishak Hse","lat":1.2989,"lon":103.77438,"services":["95","151"]},{"code":"16179","name":"Opp Yusof Ishak Hse","lat":1.29898,"lon":103.77418,"services":["95","95B","96","96A","96B","151"]},{"code":"16181","name":"Ctrl Lib","lat":1.29657,"lon":103.77254,"services":["95","151"]},{"code":"16189","name":"Information Technology","lat":1.29723,"lon":103.77276,"services":["95","95B","96","96A","96B","151"]},{"code":"16191","name":"Aft Kent Ridge Dr","lat":1.29614,"lon":103.77037,"services":["95","151"]},{"code":"16199","name":"Aft Architecture Dr","lat":1.29639,"lon":103.77073,"services":["95","95B","96","96A","96B","151"]},{"code":"16201","name":"Barossa Gdns","lat":1.2813,"lon":103.78411,"services":["10","30","51","143","188","200","200A"]},{"code":"16209","name":"Horizon Residences","lat":1.28159,"lon":103.78401,"services":["10","30","51","143","188","200"]},{"code":"16211","name":"Wharves Bldg","lat":1.27942,"lon":103.78358,"services":["175","176"]},{"code":"16219","name":"Opp Wharves Bldg","lat":1.28016,"lon":103.78362,"services":["175","176"]},{"code":"16221","name":"Opp Haw Par Villa Stn","lat":1.28298,"lon":103.78118,"services":["175","176"]},{"code":"16229","name":"Haw Par Villa Stn","lat":1.28301,"lon":103.7816,"services":["175","176"]},{"code":"16231","name":"Wholesale Ctr","lat":1.28636,"lon":103.77853,"services":["175","176"]},{"code":"16239","name":"Opp Wholesale Ctr","lat":1.28644,"lon":103.77893,"services":["175","176"]},{"code":"16241","name":"Bef West Coast Pk","lat":1.2891,"lon":103.77353,"services":["175","176"]},{"code":"16249","name":"Bef Wholesale Ctr","lat":1.28928,"lon":103.77401,"services":["175","176"]},{"code":"16891","name":"Opp Blk 420A","lat":1.30982,"lon":103.76816,"services":["189"]},{"code":"16991","name":"Opp Nan Hua High Sch","lat":1.30778,"lon":103.76989,"services":["189"]},{"code":"17009","name":"Clementi Int","lat":1.31492,"lon":103.76412,"services":["7","7B","14","96","96A","99","147","156","165","166","173","175","196","282","284","285"]},{"code":"17011","name":"Opp Varsity Pk","lat":1.29387,"lon":103.76688,"services":["30","51","143","201","655"]},{"code":"17019","name":"Varsity Pk","lat":1.2938,"lon":103.76705,"services":["30","51","143","201","655"]},{"code":"17021","name":"Waseda S Snr High Sch","lat":1.29674,"lon":103.76691,"services":["30","51","143","201","655"]},{"code":"17029","name":"Opp Waseda S Snr High Sch","lat":1.29695,"lon":103.7671,"services":["30","51","143","201","655"]},{"code":"17031","name":"Kent Ridge Sec Sch","lat":1.30172,"lon":103.76568,"services":["30","51","143","175","201","655"]},{"code":"17039","name":"Opp Kent Ridge Sec Sch","lat":1.30153,"lon":103.76606,"services":["30","51","143","175","201","655"]},{"code":"17041","name":"Blk 726 Clementi West Mkt","lat":1.30421,"lon":103.76456,"services":["30","51","143","175","201","282","655"]},{"code":"17049","name":"Blk 601","lat":1.30485,"lon":103.76449,"services":["30","51","143","175","201","655"]},{"code":"17051","name":"Opp Regent Pk","lat":1.31726,"lon":103.7624,"services":["154","188","196","201","963"]},{"code":"17059","name":"Regent Pk","lat":1.31694,"lon":103.7617,"services":["154","154B","188","196","201","963"]},{"code":"17061","name":"Blk 701","lat":1.30776,"lon":103.76181,"services":["30","51","78","143","285","655"]},{"code":"17069","name":"Opp Blk 701","lat":1.30777,"lon":103.76214,"services":["30","51","78","143","285","655"]},{"code":"17071","name":"Blk 513","lat":1.30892,"lon":103.76044,"services":["30","51","78","143","285","655"]},{"code":"17079","name":"Blk 512","lat":1.30968,"lon":103.75999,"services":["30","51","78","143","285","655"]},{"code":"17081","name":"Aft West Coast Highway","lat":1.2995,"lon":103.76458,"services":["175"]},{"code":"17089","name":"Bef West Coast Cres","lat":1.29968,"lon":103.76543,"services":["175"]},{"code":"17091","name":"Aft Clementi Ave 1","lat":1.30905,"lon":103.77158,"services":["96","96B","151","183"]},{"code":"17099","name":"UTown - Cendana","lat":1.30783,"lon":103.77165,"services":["33","96","96A","151","183","196"]},{"code":"17101","name":"Blk 352","lat":1.31487,"lon":103.77179,"services":["52","74","151","154","154B","165"]},{"code":"17109","name":"Opp Blk 352","lat":1.31553,"lon":103.77218,"services":["52","74","151","154","165"]},{"code":"17111","name":"Blk 343","lat":1.3178,"lon":103.77125,"services":["52","74","151","154","154B","184"]},{"code":"17119","name":"Opp Blk 343","lat":1.31728,"lon":103.77193,"services":["52","74","151","154","165"]},{"code":"17121","name":"Blk 610","lat":1.30476,"lon":103.76945,"services":["97","97e","188","196","197","198","963"]},{"code":"17129","name":"Aft NUS High Sch","lat":1.30514,"lon":103.76986,"services":["97","97e","197","198","963"]},{"code":"17131","name":"Clementi Flyover","lat":1.30804,"lon":103.76591,"services":["97","97e","188","196","197","198","963"]},{"code":"17139","name":"Aft Clementi Ave 2","lat":1.30765,"lon":103.76674,"services":["97","97e","188","189","196","197","198","963"]},{"code":"17141","name":"Clementi Stadium","lat":1.311,"lon":103.7635,"services":["97","97e","188","196","197","198","963"]},{"code":"17149","name":"Blk 426","lat":1.31172,"lon":103.76346,"services":["97","97e","188","196","197","198","963"]},{"code":"17151","name":"Blk 410","lat":1.3117,"lon":103.76961,"services":["14","52","96","96B","105","106","147","154","165","166","183","185","667"]},{"code":"17159","name":"Blk 365","lat":1.31198,"lon":103.76981,"services":["14","52","96","96A","105","106","147","154","154B","165","166","183","185","667"]},{"code":"17161","name":"Blk 455","lat":1.31241,"lon":103.76685,"services":["14","52","78","96","96B","105","106","147","154","156","165","166","175","183","185","189","201","285"]},{"code":"17169","name":"Blk 329","lat":1.31285,"lon":103.7668,"services":["52","105","106","154","154B","183","184","185"]},{"code":"17171","name":"Clementi Stn Exit A/Mall","lat":1.31533,"lon":103.76486,"services":["14","52","78","96","96B","105","106","147","154","156","165","166","175","183","185","189","201","285"]},{"code":"17179","name":"Clementi Stn Exit B","lat":1.31528,"lon":103.76536,"services":["52","105","105B","106","106A","154","154B","183","184","185","189","201"]},{"code":"17181","name":"Opp Blk 317","lat":1.3175,"lon":103.76389,"services":["52","99","105","106","154","173","183","185","189","196","201"]},{"code":"17189","name":"Blk 317","lat":1.31791,"lon":103.76406,"services":["52","99","105","105B","106","106A","154","154B","173","183","185","189","196","201"]},{"code":"17191","name":"NUS High Sch","lat":1.30567,"lon":103.76989,"services":["188","189","196"]},{"code":"17201","name":"Blk 308","lat":1.32056,"lon":103.76735,"services":["284","667"]},{"code":"17211","name":"Bet Blks 315/318","lat":1.31829,"lon":103.7659,"services":["284","667"]},{"code":"17219","name":"Blk 376","lat":1.3182,"lon":103.76616,"services":["284","667"]},{"code":"17221","name":"Blk 377","lat":1.31736,"lon":103.7679,"services":["7","7B","282","667"]},{"code":"17229","name":"Blk 335","lat":1.31728,"lon":103.76824,"services":["7","184","282","667"]},{"code":"17239","name":"NTUC Fairprice","lat":1.31244,"lon":103.76585,"services":["14","78","96","96A","147","156","165","166","175","285"]},{"code":"17241","name":"Blk 334","lat":1.31519,"lon":103.76906,"services":["156","184","282","667"]},{"code":"17249","name":"Blk 355","lat":1.31517,"lon":103.76934,"services":["156","282","667"]},{"code":"17251","name":"Blk 460","lat":1.31148,"lon":103.76744,"services":["78","175","201","282","285"]},{"code":"17259","name":"Opp Blk 460","lat":1.31093,"lon":103.76746,"services":["78","175","189","201","282","285"]},{"code":"17269","name":"Blk 730","lat":1.30514,"lon":103.76274,"services":["282"]},{"code":"17279","name":"Blk 723","lat":1.30292,"lon":103.76319,"services":["282"]},{"code":"17289","name":"West Coast CC","lat":1.30232,"lon":103.76471,"services":["282"]},{"code":"17291","name":"West Coast Pk","lat":1.29035,"lon":103.7697,"services":["175","176"]},{"code":"17299","name":"Opp West Coast Pk","lat":1.29061,"lon":103.77005,"services":["175","176"]},{"code":"17301","name":"Opp West Coast View","lat":1.29495,"lon":103.76517,"services":["175","176"]},{"code":"17309","name":"West Coast View","lat":1.29537,"lon":103.76525,"services":["175","176"]},{"code":"17311","name":"Opp Blk 801C","lat":1.30102,"lon":103.76229,"services":["176"]},{"code":"17319","name":"Blk 716","lat":1.30184,"lon":103.7623,"services":["176"]},{"code":"17321","name":"Tien Wah Press Bldg","lat":1.30483,"lon":103.76035,"services":["176"]},{"code":"17329","name":"Blk 705","lat":1.30505,"lon":103.76058,"services":["176"]},{"code":"17331","name":"Opp Blk 518","lat":1.30759,"lon":103.75833,"services":["176"]},{"code":"17339","name":"Blk 518","lat":1.30786,"lon":103.7585,"services":["176"]},{"code":"17351","name":"Aft Clementi Rd","lat":1.29358,"lon":103.76576,"services":["175","176"]},{"code":"17359","name":"Bef Clementi Rd","lat":1.29334,"lon":103.76622,"services":["175","176"]},{"code":"17361","name":"Opp West Coast Lk","lat":1.2986,"lon":103.76346,"services":["176"]},{"code":"17369","name":"Aft West Coast Lk","lat":1.29841,"lon":103.76387,"services":["175","176"]},{"code":"17371","name":"Blk 201","lat":1.32058,"lon":103.76357,"services":["185","189"]},{"code":"17379","name":"Blk 304","lat":1.32049,"lon":103.76389,"services":["185","189"]},{"code":"17381","name":"West Bay Resort Condo","lat":1.29908,"lon":103.76686,"services":["30","51","143","201","655"]},{"code":"17389","name":"Opp West Bay Resort Condo","lat":1.29908,"lon":103.767,"services":["30","51","143","201","655"]},{"code":"18011","name":"Aft HortPark","lat":1.28087,"lon":103.8021,"services":["51","61","93","97","100","120","166","963"]},{"code":"18019","name":"Bef Telok Blangah Hill Pk","lat":1.28091,"lon":103.80252,"services":["51","57","61","93","97","100","120","166","175","963"]},{"code":"18021","name":"Opp Tempco Mfg","lat":1.29645,"lon":103.78892,"services":["91"]},{"code":"18029","name":"Tempco Mfg","lat":1.2961,"lon":103.78918,"services":["91"]},{"code":"18041","name":"Normanton Pk","lat":1.28836,"lon":103.79317,"services":["14","33","97","97e","166","197","963"]},{"code":"18049","name":"Opp Science Pk","lat":1.29018,"lon":103.79208,"services":["14","33","33A","97","97e","166","197","963","963e"]},{"code":"18051","name":"one-north Stn","lat":1.29864,"lon":103.78734,"services":["91"]},{"code":"18059","name":"Opp one-north Stn","lat":1.29849,"lon":103.78721,"services":["91"]},{"code":"18061","name":"Blk 71","lat":1.29672,"lon":103.78738,"services":["91"]},{"code":"18069","name":"Opp Blk 71","lat":1.29649,"lon":103.78755,"services":["91"]},{"code":"18071","name":"NUH","lat":1.29543,"lon":103.78449,"services":["97","197","963","963e"]},{"code":"18079","name":"Opp NUH","lat":1.29648,"lon":103.78455,"services":["97","197","198","963","963e"]},{"code":"18081","name":"Blk 55","lat":1.29479,"lon":103.78734,"services":["91"]},{"code":"18089","name":"S'pore Post","lat":1.29481,"lon":103.78757,"services":["91"]},{"code":"18099","name":"Bef Ayer Rajah Cres","lat":1.29393,"lon":103.78954,"services":["91"]},{"code":"18101","name":"5 Sci Pk Dr","lat":1.29284,"lon":103.78629,"services":["14","33","97","166","197","963","963e"]},{"code":"18109","name":"Blk 55/Opp 5 Sci Pk Dr","lat":1.29403,"lon":103.78673,"services":["14","33","33A","97","166","197","963","963e"]},{"code":"18111","name":"Fairfield Meth Pr Sch","lat":1.30059,"lon":103.78448,"services":["33","33A","74","166","196","667"]},{"code":"18119","name":"Opp Fairfield Meth Pr Sch","lat":1.30005,"lon":103.78467,"services":["33","74","166","196","667"]},{"code":"18121","name":"Opp Ayer Rajah Ind Est","lat":1.29751,"lon":103.78542,"services":["14","33","92","95","95B","166","198","200"]},{"code":"18129","name":"Ayer Rajah Ind Est","lat":1.29776,"lon":103.78571,"services":["14","33","33A","92","92A","95","166","198","200","200A"]},{"code":"18131","name":"Science Pk","lat":1.2895,"lon":103.79183,"services":["14","33","97","97e","166","197","963","963e"]},{"code":"18141","name":"Aft Anglo-Chinese JC","lat":1.30418,"lon":103.78788,"services":["14","74","91","92","95","95B","191","196","198","200"]},{"code":"18149","name":"Essec Business Sch","lat":1.30255,"lon":103.7872,"services":["14","74","91","92","92A","95","191","196","198","200","200A"]},{"code":"18151","name":"Opp one-north Stn/Galaxis","lat":1.30044,"lon":103.78858,"services":["191"]},{"code":"18159","name":"one-north Stn/Galaxis","lat":1.30035,"lon":103.78858,"services":["191"]},{"code":"18171","name":"Bef Weyhill Cl","lat":1.29911,"lon":103.79406,"services":["191"]},{"code":"18179","name":"Opp Weyhill Cl","lat":1.29988,"lon":103.79305,"services":["191"]},{"code":"18181","name":"Opp Tanglin Trust Sch","lat":1.29715,"lon":103.79369,"services":["191"]},{"code":"18189","name":"Tanglin Trust Sch","lat":1.29836,"lon":103.79389,"services":["191"]},{"code":"18191","name":"Bef Whitchurch Rd","lat":1.29446,"lon":103.79594,"services":["191"]},{"code":"18199","name":"Aft Whitchurch Rd","lat":1.29562,"lon":103.79418,"services":["191"]},{"code":"18201","name":"Mediacorp Campus","lat":1.29498,"lon":103.79323,"services":["191"]},{"code":"18211","name":"Infinite Studios","lat":1.29162,"lon":103.79522,"services":["191"]},{"code":"18221","name":"NUH","lat":1.2963,"lon":103.78347,"services":["95"]},{"code":"18239","name":"Opp NUH","lat":1.29679,"lon":103.78319,"services":["95","95B"]},{"code":"18241","name":"7 Sci Pk Dr (Geneo)","lat":1.29092,"lon":103.78708,"services":["92","92A","92B"]},{"code":"18249","name":"DNV Technology Ctr","lat":1.29072,"lon":103.78713,"services":["92","92B"]},{"code":"18251","name":"71 Sci Pk Dr","lat":1.29068,"lon":103.78845,"services":["92","92A","92B"]},{"code":"18261","name":"Opp DSO Natl Laboratories","lat":1.29016,"lon":103.78934,"services":["92","92A","92B"]},{"code":"18269","name":"DSO Natl Laboratories","lat":1.2901,"lon":103.78919,"services":["92","92B"]},{"code":"18271","name":"Blk 85","lat":1.28841,"lon":103.78993,"services":["92","92A","92B"]},{"code":"18279","name":"Opp Blk 85","lat":1.28841,"lon":103.78977,"services":["92","92B"]},{"code":"18281","name":"Opp Normanton Pk/R'ford","lat":1.28753,"lon":103.79121,"services":["92","92A","92B"]},{"code":"18289","name":"Opp R'ford/Normanton Pk","lat":1.28738,"lon":103.79121,"services":["92","92B"]},{"code":"18301","name":"Lim Seng Tjoe Bldg (LT 27)","lat":1.29739,"lon":103.78093,"services":["95"]},{"code":"18309","name":"Blk S17","lat":1.29752,"lon":103.78134,"services":["95","95B"]},{"code":"18311","name":"Blk S12","lat":1.29744,"lon":103.77792,"services":["95"]},{"code":"18319","name":"Opp University Hall","lat":1.29753,"lon":103.77813,"services":["95","95B"]},{"code":"18321","name":"Opp University Health Ctr","lat":1.29879,"lon":103.77562,"services":["95"]},{"code":"18329","name":"University Health Ctr","lat":1.29892,"lon":103.77611,"services":["95","95B"]},{"code":"18331","name":"Kent Ridge Stn Exit A/NUH","lat":1.29485,"lon":103.78438,"services":["95"]},{"code":"18339","name":"Opp Kent Ridge Stn Exit A","lat":1.29506,"lon":103.78456,"services":["95","95B"]},{"code":"19011","name":"Blk 19A CP","lat":1.30782,"lon":103.78424,"services":["14","105","106","147","185"]},{"code":"19019","name":"Blk 27","lat":1.30807,"lon":103.78476,"services":["14","105","106","147","185"]},{"code":"19021","name":"SP SMA","lat":1.30965,"lon":103.7812,"services":["14","74","105","106","147","166","185"]},{"code":"19029","name":"Opp SP SMA","lat":1.30956,"lon":103.78202,"services":["14","74","105","106","147","166","185"]},{"code":"19031","name":"Dover Stn Exit A","lat":1.31123,"lon":103.77838,"services":["14","74","105","106","147","166","185"]},{"code":"19039","name":"Dover Stn Exit B","lat":1.31168,"lon":103.77868,"services":["14","74","105","106","147","166","185"]},{"code":"19041","name":"Opp Sch of Science & Tech","lat":1.31236,"lon":103.77553,"services":["14","74","105","106","147","166","185"]},{"code":"19049","name":"Sch of Science & Tech","lat":1.31266,"lon":103.77479,"services":["14","74","105","106","147","166","185"]},{"code":"19051","name":"New Town Sec Sch","lat":1.30896,"lon":103.77392,"services":["33","33A","196"]},{"code":"19059","name":"UTown - RC4","lat":1.30895,"lon":103.77272,"services":["33","196"]},{"code":"19061","name":"Ayer Rajah Telecoms","lat":1.30752,"lon":103.77782,"services":["33","33A","196"]},{"code":"19069","name":"Opp Ayer Rajah Telecoms","lat":1.30779,"lon":103.77671,"services":["33","196"]},{"code":"19071","name":"Opp ACS Independent","lat":1.30516,"lon":103.78108,"services":["33","33A","74","166","196","667"]},{"code":"19079","name":"Dover Ct Intl Sch","lat":1.30607,"lon":103.78013,"services":["33","196"]},{"code":"19081","name":"Opp ACS Boarding Sch","lat":1.30257,"lon":103.78282,"services":["33","33A","74","166","196","667"]},{"code":"19089","name":"ACS Independent","lat":1.3037,"lon":103.78184,"services":["33","74","166","196","667"]},{"code":"19091","name":"S'pore Poly","lat":1.30739,"lon":103.78208,"services":["74","166","667"]},{"code":"19099","name":"Opp S'pore Poly","lat":1.30697,"lon":103.78191,"services":["74","166","667"]},{"code":"20011","name":"Blk 506","lat":1.31309,"lon":103.76129,"services":["97","97e","197","198"]},{"code":"20019","name":"Blk 431","lat":1.31358,"lon":103.76151,"services":["97","97e","188","188e","196","197","198","963"]},{"code":"20021","name":"NEWest","lat":1.31676,"lon":103.75789,"services":["97","154","197","198","201"]},{"code":"20029","name":"Opp NEWest","lat":1.31773,"lon":103.75768,"services":["97","154","154B","197","198","201"]},{"code":"20031","name":"The Infiniti","lat":1.32056,"lon":103.75465,"services":["97","154","197","198","201"]},{"code":"20039","name":"Opp The Infiniti","lat":1.32102,"lon":103.75472,"services":["97","154","154B","197","198","201"]},{"code":"20051","name":"Cycle & Carriage","lat":1.32259,"lon":103.74754,"services":["97","154","197","198"]},{"code":"20059","name":"Opp Cycle & Carriage","lat":1.32332,"lon":103.74769,"services":["97","154","154B","197","198","201"]},{"code":"20061","name":"Aft Jurong Town Hall Rd","lat":1.32381,"lon":103.74299,"services":["49","154","178"]},{"code":"20069","name":"Bef Jurong Town Hall Rd","lat":1.32406,"lon":103.74419,"services":["49","154","154B","178"]},{"code":"20081","name":"Carrier S'pore","lat":1.3266,"lon":103.73879,"services":["49","154","178","201"]},{"code":"20089","name":"Opp Carrier S'pore","lat":1.32703,"lon":103.73922,"services":["30","49","154","154B","178"]},{"code":"20101","name":"Nan Hua Pr Sch","lat":1.31994,"lon":103.76222,"services":["52","99","105","106","173","183","188","963"]},{"code":"20109","name":"Aft Clementi Fire Stn","lat":1.32085,"lon":103.76207,"services":["52","99","105","105B","106","106A","173","183","188","963"]},{"code":"20121","name":"Opp Blk 51","lat":1.32024,"lon":103.73708,"services":["30","78","78A","79","79T","655"]},{"code":"20129","name":"Bet Blks 50/51","lat":1.32035,"lon":103.73754,"services":["78","79","201","655"]},{"code":"20131","name":"S'pore Food Ind Bldg","lat":1.31559,"lon":103.75185,"services":["30","51","143","176","655"]},{"code":"20139","name":"Bef West Coast Rise","lat":1.31584,"lon":103.75204,"services":["30","51","143","176","655"]},{"code":"20141","name":"Opp Blk 408","lat":1.31772,"lon":103.74877,"services":["30","51","143","176","655"]},{"code":"20149","name":"Blk 408","lat":1.31796,"lon":103.74897,"services":["30","51","143","176","655"]},{"code":"20151","name":"Opp Blk 411","lat":1.3183,"lon":103.74631,"services":["30","176"]},{"code":"20159","name":"Blk 411","lat":1.31851,"lon":103.7464,"services":["30","143M","176","201"]},{"code":"20161","name":"Opp Blks 34/35","lat":1.31915,"lon":103.74214,"services":["78","78A","143","143M"]},{"code":"20169","name":"Blk 35","lat":1.31928,"lon":103.74251,"services":["78","143","143M"]},{"code":"20171","name":"Opp Blk 47","lat":1.31968,"lon":103.73984,"services":["78","78A","143","143M"]},{"code":"20179","name":"Blk 31","lat":1.32,"lon":103.7391,"services":["78","143","143M"]},{"code":"20181","name":"Ayer Rajah CC","lat":1.32048,"lon":103.74746,"services":["51","51A","143","655"]},{"code":"20189","name":"Opp Ayer Rajah CC","lat":1.32031,"lon":103.74727,"services":["51","143","143M","201","655"]},{"code":"20191","name":"Blk 407","lat":1.31924,"lon":103.74846,"services":["51","51A","143","655"]},{"code":"20199","name":"Blk 410","lat":1.31908,"lon":103.7482,"services":["51","143","143M","201","655"]},{"code":"20201","name":"Bef Blk 39","lat":1.32133,"lon":103.74386,"services":["30","79","79T","143","143M","655"]},{"code":"20209","name":"Bef Jurong Town Hall Rd","lat":1.32145,"lon":103.74421,"services":["79","143","143M","201","655"]},{"code":"20211","name":"Blk 41","lat":1.32177,"lon":103.74184,"services":["30","79","79T","143","143M","655"]},{"code":"20219","name":"Opp Blk 41","lat":1.32206,"lon":103.74143,"services":["79","143","143M","201","655"]},{"code":"20231","name":"Bef Hasanah Mque","lat":1.32234,"lon":103.73944,"services":["30","79","79T","143","143M","655"]},{"code":"20239","name":"Aft Hasanah Mque","lat":1.32247,"lon":103.73947,"services":["79","143","143M","201","655"]},{"code":"20241","name":"Opp Blk 54","lat":1.32116,"lon":103.73638,"services":["30"]},{"code":"20249","name":"Blk 54","lat":1.32162,"lon":103.7367,"services":["201"]},{"code":"20251","name":"Bef Teban Gdns Rd","lat":1.31976,"lon":103.74447,"services":["30","78","176"]},{"code":"20259","name":"C'wealth Sec Sch","lat":1.32014,"lon":103.74508,"services":["30","78","78A","143","143M","176","201"]},{"code":"20261","name":"Aft Pandan Gdns","lat":1.3216,"lon":103.74546,"services":["51","78","79","143","143M","176","201"]},{"code":"20269","name":"Bef Pandan Gdns","lat":1.32152,"lon":103.74581,"services":["30","51","51A","78","78A","176"]},{"code":"20271","name":"Opp German Ctr","lat":1.3251,"lon":103.74562,"services":["49","51","78","79","97","97e","143","143M","176","178","197","198","647"]},{"code":"20281","name":"Opp The Japanese Sec Sch","lat":1.31234,"lon":103.75484,"services":["30","51","143","176","285","655"]},{"code":"20289","name":"The Japanese Sec Sch","lat":1.31249,"lon":103.75503,"services":["30","51","143","176","655"]},{"code":"20291","name":"Opp Blk 501","lat":1.31095,"lon":103.75771,"services":["30","51","78","143","285","655"]},{"code":"20299","name":"Blk 501","lat":1.31093,"lon":103.75858,"services":["30","51","78","143","285","655"]},{"code":"20309","name":"Blk L Pandan Light Ind Pk","lat":1.31062,"lon":103.75404,"services":["285"]},{"code":"20319","name":"Blk T Pandan Light Ind Pk","lat":1.31259,"lon":103.75284,"services":["285"]},{"code":"20329","name":"S'pore Food Ind","lat":1.31503,"lon":103.75102,"services":["285"]},{"code":"20331","name":"Vejoil Pte Ltd","lat":1.31329,"lon":103.74926,"services":["285"]},{"code":"20341","name":"Pan Tech Ind Cplx","lat":1.31186,"lon":103.75047,"services":["285"]},{"code":"21011","name":"Aft Jurong Lake","lat":1.32534,"lon":103.72867,"services":["30","49","154","178"]},{"code":"21019","name":"Aft Yuan Ching Rd","lat":1.32555,"lon":103.72703,"services":["30","49","154","154B","178"]},{"code":"21021","name":"Bef Jurong Port Rd","lat":1.32419,"lon":103.72379,"services":["30","49","154","178"]},{"code":"21029","name":"Aft Corp Pl","lat":1.3243,"lon":103.72181,"services":["30","49","98M","154","154B","178","240"]},{"code":"21041","name":"Aft Jln Terusan","lat":1.32092,"lon":103.72012,"services":["79","79T","98"]},{"code":"21049","name":"Bef Jln Terusan","lat":1.32107,"lon":103.72025,"services":["79","98","98B"]},{"code":"21051","name":"Bef Penjuru Rd","lat":1.31226,"lon":103.73045,"services":["79"]},{"code":"21059","name":"Aft Penjuru Rd","lat":1.31195,"lon":103.73014,"services":["79","79T"]},{"code":"21069","name":"Bef Jln Tepong","lat":1.31237,"lon":103.71919,"services":["98","98B"]},{"code":"21071","name":"Jurong Abattoir","lat":1.31394,"lon":103.72227,"services":["79"]},{"code":"21079","name":"Opp Jurong Abattoir","lat":1.31343,"lon":103.7228,"services":["79","79T","98","98B"]},{"code":"21089","name":"Bef Jln Buroh","lat":1.31206,"lon":103.72296,"services":["98","98B"]},{"code":"21099","name":"Jurong Island Checkpt","lat":1.31009,"lon":103.71138,"services":["98","98B"]},{"code":"21109","name":"Ctrl Fish Proc Fty","lat":1.311,"lon":103.7211,"services":["98","98B"]},{"code":"21111","name":"Aft Jurong Pier Rd","lat":1.31442,"lon":103.71244,"services":["98"]},{"code":"21119","name":"Bef Jurong Pier Rd","lat":1.31397,"lon":103.71202,"services":["98","98B"]},{"code":"21121","name":"SPC Svc Stn","lat":1.31469,"lon":103.71602,"services":["98"]},{"code":"21129","name":"Opp SPC Svc Stn","lat":1.31427,"lon":103.71493,"services":["98","98B"]},{"code":"21131","name":"Bef Jurong Port Rd","lat":1.31471,"lon":103.71799,"services":["98"]},{"code":"21139","name":"Aft Jurong Port Rd","lat":1.31433,"lon":103.71847,"services":["98","98B"]},{"code":"21141","name":"Aft Jln Buroh","lat":1.31517,"lon":103.71957,"services":["79","79T","98"]},{"code":"21149","name":"Jurong Port Workshops","lat":1.31563,"lon":103.7199,"services":["79","98","98B"]},{"code":"21151","name":"CWT Distripk","lat":1.31699,"lon":103.71989,"services":["79","79T","98"]},{"code":"21159","name":"Sin Soon Huat","lat":1.31869,"lon":103.72043,"services":["79","98","98B"]},{"code":"21161","name":"Blk 216B","lat":1.35044,"lon":103.71274,"services":["157","174","185"]},{"code":"21169","name":"Opp Blk 216B","lat":1.35074,"lon":103.71276,"services":["157","185"]},{"code":"21171","name":"Opp Corp Pl","lat":1.32582,"lon":103.71907,"services":["30","79","79T","98","154","178"]},{"code":"21179","name":"Corp Pl","lat":1.32586,"lon":103.7193,"services":["30","79","98","98A","98B","98M","154","154B","178","240"]},{"code":"21181","name":"Opp Blk 161","lat":1.32992,"lon":103.72095,"services":["79","79T","178"]},{"code":"21189","name":"Blk 161","lat":1.33026,"lon":103.72122,"services":["79","178"]},{"code":"21191","name":"Opp Blk 178","lat":1.33291,"lon":103.72045,"services":["178"]},{"code":"21199","name":"Blk 178","lat":1.33331,"lon":103.72051,"services":["178"]},{"code":"21201","name":"Opp Taman Jurong Greens","lat":1.33683,"lon":103.71779,"services":["178"]},{"code":"21209","name":"Taman Jurong Greens","lat":1.33688,"lon":103.71806,"services":["178"]},{"code":"21211","name":"Opp Lakepoint Condo","lat":1.34005,"lon":103.71607,"services":["30","49","98","98M","178"]},{"code":"21219","name":"Lakepoint Condo","lat":1.3401,"lon":103.71626,"services":["30","49","98","98A","98B","98M","178"]},{"code":"21229","name":"Opp S'pore A'space Mfg","lat":1.34206,"lon":103.71601,"services":["30","49","98","98A","98B","98M","178"]},{"code":"21231","name":"Blk 203","lat":1.3436,"lon":103.71599,"services":["240","240M","246"]},{"code":"21239","name":"Opp Blk 203","lat":1.3445,"lon":103.71633,"services":["240","240M","246"]},{"code":"21241","name":"Blk 216 CP","lat":1.34974,"lon":103.71235,"services":["174","174e","198","198A","502","502A"]},{"code":"21249","name":"Blk 213","lat":1.34958,"lon":103.71249,"services":["174","174e","198","502"]},{"code":"21251","name":"Bef Quality Rd","lat":1.33624,"lon":103.71035,"services":["79","246"]},{"code":"21259","name":"Aft Quality Rd","lat":1.33604,"lon":103.71044,"services":["79","79T","246"]},{"code":"21261","name":"Aft Chin Bee Ave","lat":1.33394,"lon":103.71025,"services":["79","79T","246"]},{"code":"21269","name":"Bef Chin Bee Ave","lat":1.33418,"lon":103.7105,"services":["79","246"]},{"code":"21271","name":"Opp Assyakirin Mque","lat":1.33466,"lon":103.71947,"services":["178"]},{"code":"21279","name":"Assyakirin Mque","lat":1.33491,"lon":103.71953,"services":["178"]},{"code":"21291","name":"Aft Jln Buroh","lat":1.31585,"lon":103.70943,"services":["249"]},{"code":"21299","name":"Bef Jln Buroh","lat":1.31601,"lon":103.70992,"services":["249","249A"]},{"code":"21301","name":"Opp Jln Pesawat","lat":1.32007,"lon":103.71014,"services":["249"]},{"code":"21309","name":"Aft Jln Pesawat","lat":1.31919,"lon":103.71055,"services":["249","249A"]},{"code":"21311","name":"Bef Tractor Rd","lat":1.32312,"lon":103.70954,"services":["249"]},{"code":"21319","name":"Opp Tractor Rd","lat":1.32377,"lon":103.7098,"services":["249","249A"]},{"code":"21321","name":"UTOC Engrg","lat":1.32624,"lon":103.70885,"services":["249"]},{"code":"21329","name":"Opp UTOC Engrg","lat":1.32692,"lon":103.70902,"services":["249","249A"]},{"code":"21331","name":"Opp Premier Milk Pte Ltd","lat":1.33029,"lon":103.70797,"services":["249"]},{"code":"21339","name":"Premier Milk Pte Ltd","lat":1.32991,"lon":103.70831,"services":["249","249A"]},{"code":"21341","name":"Opp GSK","lat":1.33517,"lon":103.70896,"services":["249"]},{"code":"21349","name":"GSK","lat":1.33554,"lon":103.7093,"services":["249","249A"]},{"code":"21351","name":"Bef Boon Lay Way","lat":1.33882,"lon":103.70956,"services":["79","79T","246","249"]},{"code":"21359","name":"Aft ST Kinetics","lat":1.33867,"lon":103.70996,"services":["79","246","249","249A"]},{"code":"21361","name":"Blk 695","lat":1.34302,"lon":103.70767,"services":["157","172","174","174e","198","198A","974","974A"]},{"code":"21369","name":"Opp Blk 695","lat":1.34309,"lon":103.708,"services":["157","172","174","174e","198","974"]},{"code":"21371","name":"Blk 680C","lat":1.34523,"lon":103.70618,"services":["99","157","172","199","242","405","974","974A"]},{"code":"21379","name":"Blk 263","lat":1.34535,"lon":103.70649,"services":["99","157","172","199","242","405","974"]},{"code":"21381","name":"St. Joseph's Hme","lat":1.35046,"lon":103.70982,"services":["157"]},{"code":"21389","name":"Opp St. Joseph's Hme","lat":1.35006,"lon":103.70993,"services":["157"]},{"code":"21391","name":"River Valley High Sch","lat":1.34485,"lon":103.70848,"services":["99","174","174e","198","502"]},{"code":"21399","name":"Opp River Valley High Sch","lat":1.34481,"lon":103.70806,"services":["99","174","174e","198","198A","502","502A"]},{"code":"21409","name":"Blk 191","lat":1.34339,"lon":103.71207,"services":["246","258M"]},{"code":"21411","name":"Opp Blk 188","lat":1.34393,"lon":103.71033,"services":["240","240M"]},{"code":"21419","name":"Blk 188","lat":1.34388,"lon":103.71058,"services":["240","240M","246","258M"]},{"code":"21421","name":"Blk 176","lat":1.3472,"lon":103.71033,"services":["99","174","174e","198","198A","240","240M","502","502A"]},{"code":"21429","name":"Blk 185","lat":1.3474,"lon":103.71059,"services":["99","174","174e","198","240","240M","246","258M","502"]},{"code":"21431","name":"Blk 210","lat":1.34766,"lon":103.71241,"services":["99","240","240M"]},{"code":"21439","name":"Boon Lay CC","lat":1.34842,"lon":103.71166,"services":["99","240","240M","246","258M"]},{"code":"21441","name":"Blk 207","lat":1.34638,"lon":103.71326,"services":["99","240","240M"]},{"code":"21449","name":"Boon Lay Shop Ctr","lat":1.3464,"lon":103.71306,"services":["99","240","240M","246","258M"]},{"code":"21451","name":"Blk 206","lat":1.34525,"lon":103.71473,"services":["99","240","240M","246"]},{"code":"21459","name":"Blk 209","lat":1.34558,"lon":103.71491,"services":["99","240","240M","246"]},{"code":"21461","name":"Bef Tukang Innovation Dr","lat":1.32732,"lon":103.71799,"services":["246"]},{"code":"21469","name":"Bef Chia Ping Rd","lat":1.32748,"lon":103.71809,"services":["246"]},{"code":"21471","name":"Bef Tukang Innovation Lane","lat":1.32673,"lon":103.71543,"services":["246"]},{"code":"21479","name":"Aft Tukang Innovation Lane","lat":1.32692,"lon":103.7157,"services":["246"]},{"code":"21481","name":"Grundfos","lat":1.32595,"lon":103.71193,"services":["246"]},{"code":"21489","name":"Opp Grundfos","lat":1.32616,"lon":103.7122,"services":["246"]},{"code":"21491","name":"Bef Intl Rd","lat":1.32686,"lon":103.71083,"services":["246"]},{"code":"21499","name":"Bef Jln Tukang","lat":1.32656,"lon":103.71102,"services":["246"]},{"code":"21501","name":"Bef Meiji Seika","lat":1.33043,"lon":103.71,"services":["246"]},{"code":"21509","name":"Opp Meiji Seika","lat":1.33116,"lon":103.70999,"services":["246"]},{"code":"21511","name":"Bef Chin Bee Rd","lat":1.33312,"lon":103.71108,"services":["79"]},{"code":"21519","name":"Aft Chin Bee Rd","lat":1.33296,"lon":103.71129,"services":["79","79T"]},{"code":"21521","name":"PB Packaging Systems","lat":1.33414,"lon":103.71459,"services":["79"]},{"code":"21529","name":"Aft Third Chin Bee Rd","lat":1.33408,"lon":103.7151,"services":["79","79T"]},{"code":"21531","name":"Clariant S'pore","lat":1.33188,"lon":103.71634,"services":["79"]},{"code":"21539","name":"Opp Kaily Packaging","lat":1.33131,"lon":103.71635,"services":["79","79T"]},{"code":"21541","name":"Aft Fourth Chin Bee Rd","lat":1.33138,"lon":103.71986,"services":["79"]},{"code":"21549","name":"Automotive Technology","lat":1.33088,"lon":103.719,"services":["79","79T"]},{"code":"21551","name":"Blk 151","lat":1.32666,"lon":103.72099,"services":["30","98","154","154A","246"]},{"code":"21559","name":"CISCO Recall","lat":1.32663,"lon":103.72064,"services":["30","98","98A","98B","98M","154","154B","240","246"]},{"code":"21561","name":"Blk 158","lat":1.3288,"lon":103.72275,"services":["30","49","98","98M","240","246"]},{"code":"21569","name":"Opp Blk 158","lat":1.32857,"lon":103.7229,"services":["30","49","98","98A","98B","98M","240","246"]},{"code":"21571","name":"Opp Jurong Sec Sch","lat":1.33057,"lon":103.72307,"services":["30","49","98","98M","240","246"]},{"code":"21579","name":"Jurong Sec Sch","lat":1.33013,"lon":103.72318,"services":["30","49","98","98A","98B","98M","240","246"]},{"code":"21581","name":"Blk 65","lat":1.33243,"lon":103.72329,"services":["30","98","98M","240","240A","246"]},{"code":"21589","name":"Opp Blk 65","lat":1.33247,"lon":103.72346,"services":["30","98","98A","98B","98M","240","246"]},{"code":"21591","name":"Opp Blk 117","lat":1.33476,"lon":103.72243,"services":["30","98","98M","240","240A","246"]},{"code":"21599","name":"Blk 117","lat":1.33468,"lon":103.72268,"services":["30","98","98A","98B","98M","240","246"]},{"code":"21601","name":"Blk 357","lat":1.33727,"lon":103.7211,"services":["30","49","98","98M","240","240A"]},{"code":"21609","name":"Opp Blk 364","lat":1.33775,"lon":103.72103,"services":["30","49","98","98A","98B","98M","240"]},{"code":"21611","name":"Blk 367","lat":1.33836,"lon":103.71932,"services":["30","49","98","98M"]},{"code":"21619","name":"Aft Corp Rd","lat":1.33794,"lon":103.71816,"services":["30","49","98","98A","98B","98M"]},{"code":"21621","name":"Blk 354","lat":1.33921,"lon":103.72206,"services":["240","240A"]},{"code":"21629","name":"Blk 334","lat":1.33967,"lon":103.72282,"services":["240"]},{"code":"21631","name":"Blk 115","lat":1.33364,"lon":103.72494,"services":["49","154","154A"]},{"code":"21639","name":"Opp Blk 115","lat":1.33379,"lon":103.72512,"services":["49","154","154B"]},{"code":"21641","name":"Bef Blk 322","lat":1.3363,"lon":103.72501,"services":["49","154","154A"]},{"code":"21649","name":"Opp Blk 322","lat":1.33671,"lon":103.72518,"services":["49","154","154B"]},{"code":"21651","name":"Opp Chinese Gdn","lat":1.33873,"lon":103.72402,"services":["154","154A","246"]},{"code":"21659","name":"Chinese Gdn","lat":1.33896,"lon":103.72411,"services":["154","154B","246"]},{"code":"21661","name":"Yuan Ching Sec Sch","lat":1.34177,"lon":103.72141,"services":["154","154A","240","240A","246"]},{"code":"21669","name":"Opp Blk 134D","lat":1.34134,"lon":103.7221,"services":["154","154B","240","246"]},{"code":"21671","name":"Blk 331","lat":1.33807,"lon":103.72376,"services":["49","246"]},{"code":"21679","name":"Blk 329","lat":1.33776,"lon":103.72358,"services":["49","246"]},{"code":"21681","name":"Opp Blk 200","lat":1.34229,"lon":103.71466,"services":["30","154","178","180","187"]},{"code":"21689","name":"Blk 200","lat":1.34242,"lon":103.71442,"services":["30","154","154B","178","180","180A","187"]},{"code":"21691","name":"Opp Summerdale","lat":1.34138,"lon":103.71222,"services":["30","154","178","180","187"]},{"code":"21699","name":"Summerdale","lat":1.34162,"lon":103.71232,"services":["30","154","154B","178","180","180A","187"]},{"code":"21711","name":"Bet Blks 523/525","lat":1.347,"lon":103.71576,"services":["99"]},{"code":"21719","name":"Opp Blk 529","lat":1.34779,"lon":103.71507,"services":["99"]},{"code":"21721","name":"Blk 239A","lat":1.34256,"lon":103.71108,"services":["240","240M"]},{"code":"21729","name":"Opp Blk 239A","lat":1.34238,"lon":103.71132,"services":["240","240M","258M"]},{"code":"21751","name":"Jurong Sec Sch","lat":1.33089,"lon":103.7248,"services":["154","154A"]},{"code":"21759","name":"Opp Jurong Sec Sch","lat":1.33032,"lon":103.72491,"services":["154","154B"]},{"code":"21761","name":"Blk 138B","lat":1.32831,"lon":103.72477,"services":["154","154A"]},{"code":"21769","name":"Opp Blk 138B","lat":1.32848,"lon":103.7249,"services":["154","154B"]},{"code":"21771","name":"Aft Corp Dr","lat":1.3266,"lon":103.72363,"services":["49","154","154A"]},{"code":"21779","name":"Aft Yuan Ching Rd","lat":1.32644,"lon":103.72426,"services":["49","98M","154","154B","240"]},{"code":"22009","name":"Boon Lay Int","lat":1.33932,"lon":103.70546,"services":["30","79","79T","154","154B","157","172","174","174e","178","179","179A","180","180A","181","181A","181M","187","192","193","194","198","198A","199","240","241","242","243G","243W","246","249","249A","251","252","405"]},{"code":"22011","name":"Bef Jurong Hill","lat":1.3213,"lon":103.70776,"services":["194"]},{"code":"22019","name":"Aft Tractor Rd","lat":1.32202,"lon":103.70711,"services":["194"]},{"code":"22021","name":"Givaudan","lat":1.32168,"lon":103.70369,"services":["194"]},{"code":"22029","name":"Opp Givaudan","lat":1.32245,"lon":103.70268,"services":["194"]},{"code":"22031","name":"Bef Pioneer Circus","lat":1.32217,"lon":103.69855,"services":["194"]},{"code":"22039","name":"Markono Holdings","lat":1.32284,"lon":103.69862,"services":["194"]},{"code":"22041","name":"Aft Tg Kling Rd","lat":1.31463,"lon":103.69873,"services":["249"]},{"code":"22049","name":"Bef Tg Kling Rd","lat":1.31447,"lon":103.69789,"services":["249","249A"]},{"code":"22051","name":"Opp Buroh St","lat":1.31387,"lon":103.70204,"services":["249"]},{"code":"22059","name":"Aft Buroh St","lat":1.31361,"lon":103.70126,"services":["249","249A"]},{"code":"22061","name":"CEVA Logistics","lat":1.31426,"lon":103.7045,"services":["249"]},{"code":"22069","name":"Opp CEVA Logistics","lat":1.31365,"lon":103.70379,"services":["249","249A"]},{"code":"22071","name":"Bef Jurong Pier Rd","lat":1.31434,"lon":103.70695,"services":["249"]},{"code":"22079","name":"Aft Jurong Pier Rd","lat":1.31394,"lon":103.70805,"services":["249","249A"]},{"code":"22081","name":"Opp Natsteel","lat":1.306,"lon":103.70038,"services":["249"]},{"code":"22089","name":"Natsteel","lat":1.30589,"lon":103.70088,"services":["249","249A"]},{"code":"22091","name":"Aft Jln Samulun","lat":1.30881,"lon":103.69656,"services":["249","251"]},{"code":"22099","name":"Bef Jln Samulun","lat":1.3088,"lon":103.69689,"services":["249"]},{"code":"22141","name":"Aft Jln Buroh","lat":1.31733,"lon":103.69595,"services":["251"]},{"code":"22149","name":"Bef Jln Buroh","lat":1.31732,"lon":103.69631,"services":["251"]},{"code":"22151","name":"Hitachi","lat":1.32095,"lon":103.69627,"services":["251"]},{"code":"22159","name":"Opp Hitachi","lat":1.32095,"lon":103.69663,"services":["251"]},{"code":"22161","name":"Aft Lok Yang Way","lat":1.32552,"lon":103.69643,"services":["193","251","258","258M"]},{"code":"22169","name":"Aft Intl Rd","lat":1.32625,"lon":103.69662,"services":["193","251","258","258M"]},{"code":"22171","name":"Opp Secura S'pore","lat":1.32954,"lon":103.69638,"services":["193","251","258","258M"]},{"code":"22179","name":"Secura S'pore","lat":1.33,"lon":103.69666,"services":["193","251","258","258M"]},{"code":"22181","name":"S'pore Post","lat":1.33302,"lon":103.69638,"services":["185","193","251","258","258M","502","502A"]},{"code":"22189","name":"Pioneer Junction","lat":1.3337,"lon":103.69666,"services":["185","193","251","258","258M","502"]},{"code":"22191","name":"Soon Lee Depot","lat":1.33131,"lon":103.69833,"services":["185","502","502A"]},{"code":"22199","name":"Opp Soon Lee Depot","lat":1.33102,"lon":103.69847,"services":["185","502"]},{"code":"22219","name":"Aft Neythal Rd","lat":1.32765,"lon":103.70261,"services":["252"]},{"code":"22221","name":"Aft Pioneer Rd Nth","lat":1.32791,"lon":103.69786,"services":["252"]},{"code":"22229","name":"Bef Pioneer Rd Nth","lat":1.32764,"lon":103.69887,"services":["252"]},{"code":"22231","name":"Blk 639","lat":1.34079,"lon":103.69718,"services":["243W","258","258M","651"]},{"code":"22239","name":"Blk 624","lat":1.34082,"lon":103.69742,"services":["243G","258","258M","651"]},{"code":"22241","name":"Opp Blk 622","lat":1.34012,"lon":103.69938,"services":["192","243W"]},{"code":"22249","name":"Blk 622","lat":1.34016,"lon":103.69865,"services":["192","243G"]},{"code":"22251","name":"Blk 665A","lat":1.34073,"lon":103.70266,"services":["192","243W"]},{"code":"22259","name":"Blk 668D","lat":1.34089,"lon":103.70255,"services":["192","243G"]},{"code":"22271","name":"Bef Kwong Min Rd","lat":1.32925,"lon":103.70011,"services":["252"]},{"code":"22281","name":"Aft Soon Lee Rd","lat":1.32849,"lon":103.70375,"services":["252"]},{"code":"22289","name":"Bef Fan Yoong Rd","lat":1.32926,"lon":103.70284,"services":["252"]},{"code":"22299","name":"Bef Soon Lee Rd","lat":1.33069,"lon":103.70177,"services":["252"]},{"code":"22309","name":"Aft Fan Yoong Rd","lat":1.33327,"lon":103.70338,"services":["252"]},{"code":"22319","name":"Bef Enterprise Rd","lat":1.33198,"lon":103.70545,"services":["252"]},{"code":"22329","name":"Opp Sam McCoy Engrg","lat":1.33024,"lon":103.70502,"services":["252"]},{"code":"22331","name":"Tg Kling Rd (End)","lat":1.30486,"lon":103.70318,"services":["249","249A"]},{"code":"22341","name":"Blk 673C","lat":1.34492,"lon":103.70103,"services":["99","193","242"]},{"code":"22349","name":"Blk 734A CP","lat":1.34521,"lon":103.7008,"services":["99","193","242"]},{"code":"22351","name":"Opp Blk 717","lat":1.34277,"lon":103.69803,"services":["193"]},{"code":"22359","name":"Blk 717","lat":1.34253,"lon":103.69728,"services":["193","242"]},{"code":"22361","name":"Blk 641","lat":1.34078,"lon":103.69587,"services":["193","243W"]},{"code":"22369","name":"Blk 704","lat":1.34033,"lon":103.69511,"services":["193","243G"]},{"code":"22391","name":"Bef Jln Buroh","lat":1.31343,"lon":103.69572,"services":["249","251"]},{"code":"22399","name":"Aft Jln Buroh","lat":1.31346,"lon":103.69602,"services":["249","249A"]},{"code":"22401","name":"Aft Shipyard Rd","lat":1.31008,"lon":103.69715,"services":["249","251"]},{"code":"22409","name":"Bef Shipyard Rd","lat":1.31014,"lon":103.69742,"services":["249","249A"]},{"code":"22411","name":"Blk 676B","lat":1.34627,"lon":103.7038,"services":["99","242"]},{"code":"22419","name":"Jurong West Sub-Stn","lat":1.34653,"lon":103.70364,"services":["99","242"]},{"code":"22421","name":"Natl Oxygen Pte Ltd","lat":1.30776,"lon":103.69872,"services":["249"]},{"code":"22429","name":"Opp Natl Oxygen Pte Ltd","lat":1.30726,"lon":103.69908,"services":["249","249A"]},{"code":"22431","name":"Opp Fei Siong Group","lat":1.33308,"lon":103.70742,"services":["252"]},{"code":"22439","name":"Aft Fei Siong Group","lat":1.33311,"lon":103.70681,"services":["252"]},{"code":"22441","name":"Blk 669 CP","lat":1.34282,"lon":103.70358,"services":["181","181A","181M","193","243G","258","258M","502"]},{"code":"22449","name":"Blk 685B","lat":1.34306,"lon":103.70381,"services":["181","181M","193","243W","258","258M","502","502A"]},{"code":"22451","name":"Opp Blk 643","lat":1.33817,"lon":103.69561,"services":["179","185","193","241","502","502A"]},{"code":"22459","name":"Blk 643","lat":1.33856,"lon":103.69572,"services":["179","185","193","241","241A","502"]},{"code":"22461","name":"Opp Blk 653B","lat":1.33596,"lon":103.6962,"services":["185","192","193","258","258M","502","502A","974","974A"]},{"code":"22469","name":"Blk 653B","lat":1.33649,"lon":103.69632,"services":["185","192","193","258","258M","502","974"]},{"code":"22471","name":"Blk 991B","lat":1.33509,"lon":103.69315,"services":["99","192","974","974A"]},{"code":"22479","name":"Opp Blk 991B","lat":1.33474,"lon":103.6931,"services":["99","192","974"]},{"code":"22481","name":"Blk 691A CP","lat":1.34246,"lon":103.70554,"services":["199","242","405","502"]},{"code":"22489","name":"Blk 683A","lat":1.34258,"lon":103.70537,"services":["199","242","405","502","502A"]},{"code":"22491","name":"Blk 662D","lat":1.33674,"lon":103.7052,"services":["79","79T","172","178","180","187","240","251","252","258M","974"]},{"code":"22499","name":"Opp Blk 662C","lat":1.33771,"lon":103.70463,"services":["79","172","178","180","180A","187","240","240M","251","252","258","258M","974","974A"]},{"code":"22501","name":"Blk 662A","lat":1.33769,"lon":103.70297,"services":["179","241","974"]},{"code":"22509","name":"Blk 664C","lat":1.33799,"lon":103.70323,"services":["179","241","974","974A"]},{"code":"22511","name":"Blk 658C","lat":1.33746,"lon":103.7003,"services":["179","241","974"]},{"code":"22519","name":"Blk 608","lat":1.33773,"lon":103.69995,"services":["179","241","974","974A"]},{"code":"22521","name":"Pioneer Stn Exit A","lat":1.33742,"lon":103.69777,"services":["179","192","241","258","258M","974"]},{"code":"22529","name":"Pioneer Stn Exit B","lat":1.33777,"lon":103.69729,"services":["179","179B","192","241","241A","258","258M","974","974A"]},{"code":"22531","name":"Opp Jurong West Pr Sch","lat":1.33923,"lon":103.69814,"services":["192","258","258M","651"]},{"code":"22539","name":"Jurong West Pr Sch","lat":1.3392,"lon":103.69839,"services":["192","258","258M","651"]},{"code":"22541","name":"Blk 655","lat":1.33497,"lon":103.69761,"services":["251"]},{"code":"22549","name":"Opp Blk 655 CP","lat":1.33464,"lon":103.69795,"services":["251"]},{"code":"22551","name":"Blk 657","lat":1.33498,"lon":103.70066,"services":["251"]},{"code":"22559","name":"Opp Blk 657 CP","lat":1.33465,"lon":103.70101,"services":["251"]},{"code":"22561","name":"Blk 660 CP","lat":1.33497,"lon":103.70414,"services":["251"]},{"code":"22569","name":"Opp Blk 660 CP","lat":1.33465,"lon":103.70458,"services":["251"]},{"code":"22591","name":"Blk 670A","lat":1.34476,"lon":103.70289,"services":["181","181A","181M","193","243G","258","258M","502"]},{"code":"22599","name":"Blk 678D","lat":1.34436,"lon":103.70345,"services":["181","181M","193","243W","258","258M","502","502A"]},{"code":"22609","name":"Soon Lee Bus Pk","lat":1.33048,"lon":103.6983,"services":["185","502","502A"]},{"code":"23011","name":"Carrier Transicold P/L","lat":1.32241,"lon":103.69251,"services":["258","258M"]},{"code":"23019","name":"Nippon Paint","lat":1.32302,"lon":103.69257,"services":["258","258M"]},{"code":"23021","name":"Aft Benoi Sector","lat":1.32244,"lon":103.68519,"services":["258","258M"]},{"code":"23029","name":"Stamford Tyre","lat":1.32302,"lon":103.68623,"services":["258","258M"]},{"code":"23031","name":"Bef Benoi Flyover","lat":1.3224,"lon":103.68099,"services":["258","258M"]},{"code":"23039","name":"Aft Benoi Flyover","lat":1.32303,"lon":103.68151,"services":["258","258M"]},{"code":"23041","name":"Opp Jurong Camp","lat":1.33334,"lon":103.69056,"services":["99","192","974"]},{"code":"23049","name":"Jurong Camp","lat":1.33411,"lon":103.69061,"services":["99","192","974","974A"]},{"code":"23051","name":"Bef Kian Teck Rd","lat":1.33169,"lon":103.68928,"services":["99","192","974"]},{"code":"23059","name":"Aft Kian Teck Rd","lat":1.33071,"lon":103.68814,"services":["99","192","974","974A"]},{"code":"23061","name":"Aft Kian Teck Rd","lat":1.32953,"lon":103.68652,"services":["99","192","974"]},{"code":"23069","name":"Bef Kian Teck Rd","lat":1.3299,"lon":103.68582,"services":["99","192","974","974A"]},{"code":"23071","name":"Opp SAFTI Military Inst","lat":1.32977,"lon":103.68258,"services":["99","192","974"]},{"code":"23079","name":"SAFTI Military Inst","lat":1.33018,"lon":103.68182,"services":["99","192","974","974A"]},{"code":"23081","name":"Opp S'pore Discovery Ctr","lat":1.33012,"lon":103.67827,"services":["182","182M"]},{"code":"23089","name":"S'pore Discovery Ctr","lat":1.33043,"lon":103.67843,"services":["182","182M"]},{"code":"23091","name":"Nippon","lat":1.32452,"lon":103.69276,"services":["193"]},{"code":"23099","name":"Bef First Lok Yang Rd","lat":1.32467,"lon":103.69286,"services":["193"]},{"code":"23101","name":"Auto World Care","lat":1.32453,"lon":103.69091,"services":["193"]},{"code":"23109","name":"Aft Third Lok Yang Rd","lat":1.32468,"lon":103.69068,"services":["193"]},{"code":"23111","name":"Bef Fourth Lok Yang Rd","lat":1.32455,"lon":103.68836,"services":["193"]},{"code":"23119","name":"Aft Fourth Lok Yang Rd","lat":1.32468,"lon":103.68848,"services":["193"]},{"code":"23121","name":"Opp Leroy-Somer","lat":1.32455,"lon":103.68565,"services":["193"]},{"code":"23129","name":"Leroy-Somer","lat":1.32468,"lon":103.68559,"services":["193"]},{"code":"23131","name":"MES Logistic Hub","lat":1.32537,"lon":103.68405,"services":["193"]},{"code":"23139","name":"Bef Lok Yang Way","lat":1.32517,"lon":103.68415,"services":["193"]},{"code":"23141","name":"Opp Varco","lat":1.32667,"lon":103.68402,"services":["193"]},{"code":"23149","name":"Varco","lat":1.32683,"lon":103.68416,"services":["193"]},{"code":"23151","name":"Containers Printers","lat":1.32788,"lon":103.68483,"services":["252"]},{"code":"23159","name":"Aft Fifth Lok Yang Rd","lat":1.32766,"lon":103.68563,"services":["252"]},{"code":"23161","name":"Aft Kian Teck Rd","lat":1.32788,"lon":103.68869,"services":["252"]},{"code":"23169","name":"Bef Kian Teck Rd","lat":1.32769,"lon":103.68868,"services":["252"]},{"code":"23171","name":"SKK (S) Pte Ltd","lat":1.3279,"lon":103.69119,"services":["252"]},{"code":"23179","name":"Aft Second Lok Yang Rd","lat":1.32767,"lon":103.69102,"services":["252"]},{"code":"23181","name":"Aft Kian Teck Rd","lat":1.3279,"lon":103.69449,"services":["252"]},{"code":"23189","name":"Bef First Lok Yang Rd","lat":1.32764,"lon":103.69398,"services":["252"]},{"code":"23191","name":"SK Tes","lat":1.31966,"lon":103.68363,"services":["253"]},{"code":"23199","name":"Opp SK Tes","lat":1.31951,"lon":103.68312,"services":["253"]},{"code":"23201","name":"Pall Corporation","lat":1.31965,"lon":103.68629,"services":["253"]},{"code":"23209","name":"NS BlueScope Lysaght","lat":1.3195,"lon":103.68578,"services":["253"]},{"code":"23211","name":"Mapletree Logistics Hub","lat":1.31792,"lon":103.6892,"services":["253"]},{"code":"23219","name":"Opp Mapletree Log Hub","lat":1.31833,"lon":103.68853,"services":["253"]},{"code":"23221","name":"Aft Gul Way","lat":1.30897,"lon":103.67178,"services":["254","257"]},{"code":"23229","name":"Opp Gul Way","lat":1.30869,"lon":103.67181,"services":["254","257"]},{"code":"23231","name":"Keppel Logistics","lat":1.30926,"lon":103.67492,"services":["254","257"]},{"code":"23239","name":"Opp Keppel Logistics","lat":1.30915,"lon":103.67519,"services":["254","257"]},{"code":"23241","name":"Aft Benoi Rd","lat":1.31025,"lon":103.67981,"services":["253"]},{"code":"23249","name":"Bef Benoi Rd","lat":1.3099,"lon":103.67949,"services":["253"]},{"code":"23251","name":"Aft Shipyard Rd","lat":1.31172,"lon":103.68378,"services":["253"]},{"code":"23259","name":"Bef Shipyard Rd","lat":1.3114,"lon":103.68366,"services":["251","253"]},{"code":"23261","name":"Opp Exxon Mobil","lat":1.31265,"lon":103.68577,"services":["253"]},{"code":"23269","name":"Exxon Mobil","lat":1.31241,"lon":103.68578,"services":["251","253"]},{"code":"23279","name":"Bef Benoi Sector","lat":1.31493,"lon":103.69163,"services":["251"]},{"code":"23281","name":"Aft Pioneer Rd","lat":1.30651,"lon":103.67897,"services":["253"]},{"code":"23291","name":"ST Marine","lat":1.30382,"lon":103.6793,"services":["253"]},{"code":"23301","name":"Bef Benoi Basin","lat":1.30212,"lon":103.67954,"services":["253"]},{"code":"23311","name":"Seatrium Benoi Yard","lat":1.30179,"lon":103.67746,"services":["253"]},{"code":"23321","name":"Bef Benoi Lane","lat":1.30404,"lon":103.67618,"services":["253"]},{"code":"23331","name":"Opp JP Nelson","lat":1.30689,"lon":103.67584,"services":["253"]},{"code":"23341","name":"Aft Pioneer Rd","lat":1.31118,"lon":103.67851,"services":["257"]},{"code":"23349","name":"Bef Pioneer Rd","lat":1.31077,"lon":103.67872,"services":["257"]},{"code":"23351","name":"Aft Gul Ave","lat":1.31615,"lon":103.67875,"services":["257"]},{"code":"23359","name":"Opp Gul Ave","lat":1.31501,"lon":103.67888,"services":["257"]},{"code":"23361","name":"Bef Benoi Sector","lat":1.31911,"lon":103.67884,"services":["257"]},{"code":"23369","name":"Aft Benoi Sector","lat":1.31908,"lon":103.67911,"services":["257"]},{"code":"23371","name":"Bef Joo Koon Int","lat":1.32595,"lon":103.67908,"services":["192","193","253","254","255","257","258","258M"]},