[{"name": "Admiralty Primary School", "level": "primary", "lat": 1.442635, "lon": 103.80004}, {"name": "Admiralty Secondary School", "level": "secondary", "lat": 1.445891, "lon": 103.802398}, {"name": "Ahmad Ibrahim Primary School", "level": "primary", "lat": 1.433153, "lon": 103.832942}, {"name": "Ahmad Ibrahim Secondary School", "level": "secondary", "lat": 1.43606, "lon": 103.829719}, {"name": "Ai Tong School", "level": "primary", "lat": 1.360583, "lon": 103.83302}, {"name": "Alexandra Primary School", "level": "primary", "lat": 1.291334, "lon": 103.824425}, {"name": "Anchor Green Primary School", "level": "primary", "lat": 1.39037, "lon": 103.887165}, {"name": "Anderson Primary School", "level": "primary", "lat": 1.384199, "lon": 103.841412}, {"name": "Anderson Secondary School", "level": "secondary", "lat": 1.37434, "lon": 103.851554}, {"name": "Anderson Serangoon Junior College", "level": "jc", "lat": 1.365043, "lon": 103.887039}, {"name": "Ang Mo Kio Primary School", "level": "primary", "lat": 1.369322, "lon": 103.839631}, {"name": "Ang Mo Kio Secondary School", "level": "secondary", "lat": 1.367337, "lon": 103.842155}, {"name": "Anglican High School", "level": "secondary", "lat": 1.330581, "lon": 103.941083}, {"name": "Anglo-chinese Junior College", "level": "jc", "lat": 1.303043, "lon": 103.785358}, {"name": "Anglo-chinese School (barker Road)", "level": "secondary", "lat": 1.319616, "lon": 103.835773}, {"name": "Anglo-chinese School (independent)", "level": "jc", "lat": 1.303704, "lon": 103.780363}, {"name": "Anglo-chinese School (junior)", "level": "primary", "lat": 1.30935, "lon": 103.84095}, {"name": "Anglo-chinese School (primary)", "level": "primary", "lat": 1.318371, "lon": 103.83561}, {"name": "Angsana Primary School", "level": "primary", "lat": 1.363606, "lon": 103.938941}, {"name": "Assumption English School", "level": "secondary", "lat": 1.368382, "lon": 103.766688}, {"name": "Assumption Pathway School", "level": "secondary", "lat": 1.369671, "lon": 103.765959}, {"name": "Bartley Secondary School", "level": "secondary", "lat": 1.339954, "lon": 103.882806}, {"name": "Beacon Primary School", "level": "primary", "lat": 1.383949, "lon": 103.773632}, {"name": "Beatty Secondary School", "level": "secondary", "lat": 1.34179, "lon": 103.852281}, {"name": "Bedok Green Primary School", "level": "primary", "lat": 1.323446, "lon": 103.937879}, {"name": "Bedok Green Secondary School", "level": "secondary", "lat": 1.334519, "lon": 103.935028}, {"name": "Bedok South Secondary School", "level": "secondary", "lat": 1.325137, "lon": 103.950989}, {"name": "Bedok View Secondary School", "level": "secondary", "lat": 1.324157, "lon": 103.943776}, {"name": "Bendemeer Primary School", "level": "primary", "lat": 1.321813, "lon": 103.865404}, {"name": "Bendemeer Secondary School", "level": "secondary", "lat": 1.324611, "lon": 103.86097}, {"name": "Blangah Rise Primary School", "level": "primary", "lat": 1.27612, "lon": 103.808629}, {"name": "Boon Lay Garden Primary School", "level": "primary", "lat": 1.34284, "lon": 103.712858}, {"name": "Boon Lay Secondary School", "level": "secondary", "lat": 1.342722, "lon": 103.701891}, {"name": "Bowen Secondary School", "level": "secondary", "lat": 1.37036, "lon": 103.87766}, {"name": "Broadrick Secondary School", "level": "secondary", "lat": 1.307051, "lon": 103.886918}, {"name": "Bukit Batok Secondary School", "level": "secondary", "lat": 1.348491, "lon": 103.740874}, {"name": "Bukit Merah Secondary School", "level": "secondary", "lat": 1.285693, "lon": 103.813439}, {"name": "Bukit Panjang Govt. High School", "level": "secondary", "lat": 1.382242, "lon": 103.738361}, {"name": "Bukit Panjang Primary School", "level": "primary", "lat": 1.373501, "lon": 103.769417}, {"name": "Bukit Timah Primary School", "level": "primary", "lat": 1.33775, "lon": 103.766855}, {"name": "Bukit View Primary School", "level": "primary", "lat": 1.345861, "lon": 103.753666}, {"name": "Bukit View Secondary School", "level": "secondary", "lat": 1.345733, "lon": 103.752227}, {"name": "Canberra Primary School", "level": "primary", "lat": 1.45125, "lon": 103.815859}, {"name": "Canberra Secondary School", "level": "secondary", "lat": 1.453191, "lon": 103.814204}, {"name": "Canossa Catholic Primary School", "level": "primary", "lat": 1.326644, "lon": 103.882228}, {"name": "Cantonment Primary School", "level": "primary", "lat": 1.275473, "lon": 103.839963}, {"name": "Casuarina Primary School", "level": "primary", "lat": 1.372461, "lon": 103.95702}, {"name": "Catholic High School", "level": "mixed", "lat": 1.354525, "lon": 103.844901}, {"name": "Catholic Junior College", "level": "jc", "lat": 1.324556, "lon": 103.835029}, {"name": "Cedar Girls' Secondary School", "level": "secondary", "lat": 1.333758, "lon": 103.873933}, {"name": "Cedar Primary School", "level": "primary", "lat": 1.335661, "lon": 103.87562}, {"name": "Changkat Changi Secondary School", "level": "secondary", "lat": 1.339506, "lon": 103.953246}, {"name": "Changkat Primary School", "level": "primary", "lat": 1.340232, "lon": 103.95208}, {"name": "Chij (katong) Primary", "level": "primary", "lat": 1.306485, "lon": 103.911106}, {"name": "Chij (kellock)", "level": "primary", "lat": 1.275023, "lon": 103.828158}, {"name": "Chij Katong Convent", "level": "secondary", "lat": 1.306443, "lon": 103.917144}, {"name": "Chij Our Lady Of Good Counsel", "level": "primary", "lat": 1.35743, "lon": 103.864009}, {"name": "Chij Our Lady Of The Nativity", "level": "primary", "lat": 1.373303, "lon": 103.897576}, {"name": "Chij Our Lady Queen Of Peace", "level": "primary", "lat": 1.366604, "lon": 103.767412}, {"name": "Chij Primary (toa Payoh)", "level": "primary", "lat": 1.332753, "lon": 103.841847}, {"name": "Chij Secondary (toa Payoh)", "level": "secondary", "lat": 1.332461, "lon": 103.843272}, {"name": "Chij St. Joseph's Convent", "level": "secondary", "lat": 1.391752, "lon": 103.902465}, {"name": "Chij St. Nicholas Girls' School", "level": "mixed", "lat": 1.373477, "lon": 103.834253}, {"name": "Chij St. Theresa's Convent", "level": "secondary", "lat": 1.275352, "lon": 103.822441}, {"name": "Chongfu School", "level": "primary", "lat": 1.438396, "lon": 103.839309}, {"name": "Chongzheng Primary School", "level": "primary", "lat": 1.350611, "lon": 103.951317}, {"name": "Christ Church Secondary School", "level": "secondary", "lat": 1.426568, "lon": 103.793451}, {"name": "Chua Chu Kang Primary School", "level": "primary", "lat": 1.377759, "lon": 103.741833}, {"name": "Chua Chu Kang Secondary School", "level": "secondary", "lat": 1.383334, "lon": 103.755103}, {"name": "Chung Cheng High School (main)", "level": "secondary", "lat": 1.305092, "lon": 103.891653}, {"name": "Chung Cheng High School (yishun)", "level": "secondary", "lat": 1.419226, "lon": 103.837391}, {"name": "Clementi Primary School", "level": "primary", "lat": 1.315063, "lon": 103.763144}, {"name": "Clementi Town Secondary School", "level": "secondary", "lat": 1.315539, "lon": 103.762021}, {"name": "Commonwealth Secondary School", "level": "secondary", "lat": 1.319204, "lon": 103.745637}, {"name": "Compassvale Primary School", "level": "primary", "lat": 1.394445, "lon": 103.897812}, {"name": "Compassvale Secondary School", "level": "secondary", "lat": 1.396141, "lon": 103.899847}, {"name": "Concord Primary School", "level": "primary", "lat": 1.380265, "lon": 103.736554}, {"name": "Corporation Primary School", "level": "primary", "lat": 1.351485, "lon": 103.707578}, {"name": "Crescent Girls' School", "level": "secondary", "lat": 1.293319, "lon": 103.817544}, {"name": "Crest Secondary School", "level": "secondary", "lat": 1.34312, "lon": 103.742628}, {"name": "Damai Primary School", "level": "primary", "lat": 1.335246, "lon": 103.921286}, {"name": "Damai Secondary School", "level": "secondary", "lat": 1.336928, "lon": 103.927092}, {"name": "Dazhong Primary School", "level": "primary", "lat": 1.35918, "lon": 103.748472}, {"name": "De La Salle School", "level": "primary", "lat": 1.394708, "lon": 103.743202}, {"name": "Deyi Secondary School", "level": "secondary", "lat": 1.365997, "lon": 103.852546}, {"name": "Dunearn Secondary School", "level": "secondary", "lat": 1.363579, "lon": 103.744721}, {"name": "Dunman High School", "level": "jc", "lat": 1.299962, "lon": 103.882942}, {"name": "Dunman Secondary School", "level": "secondary", "lat": 1.360653, "lon": 103.956214}, {"name": "East Spring Primary School", "level": "primary", "lat": 1.352684, "lon": 103.961677}, {"name": "East Spring Secondary School", "level": "secondary", "lat": 1.356225, "lon": 103.960641}, {"name": "Edgefield Primary School", "level": "primary", "lat": 1.400091, "lon": 103.907848}, {"name": "Edgefield Secondary School", "level": "secondary", "lat": 1.400593, "lon": 103.902687}, {"name": "Elias Park Primary School", "level": "primary", "lat": 1.375057, "lon": 103.945289}, {"name": "Endeavour Primary School", "level": "primary", "lat": 1.453882, "lon": 103.817175}, {"name": "Eunoia Junior College", "level": "jc", "lat": 1.362138, "lon": 103.841286}, {"name": "Evergreen Primary School", "level": "primary", "lat": 1.444148, "lon": 103.794545}, {"name": "Evergreen Secondary School", "level": "secondary", "lat": 1.441491, "lon": 103.794138}, {"name": "Fairfield Methodist School (primary)", "level": "primary", "lat": 1.301004, "lon": 103.785456}, {"name": "Fairfield Methodist School (secondary)", "level": "secondary", "lat": 1.301634, "lon": 103.7841}, {"name": "Farrer Park Primary School", "level": "primary", "lat": 1.312369, "lon": 103.850766}, {"name": "Fengshan Primary School", "level": "primary", "lat": 1.329806, "lon": 103.93171}, {"name": "Fern Green Primary School", "level": "primary", "lat": 1.39727, "lon": 103.88033}, {"name": "Fernvale Primary School", "level": "primary", "lat": 1.390302, "lon": 103.874445}, {"name": "First Toa Payoh Primary School", "level": "primary", "lat": 1.340323, "lon": 103.85553}, {"name": "Frontier Primary School", "level": "primary", "lat": 1.336413, "lon": 103.699702}, {"name": "Fuchun Primary School", "level": "primary", "lat": 1.43048, "lon": 103.778193}, {"name": "Fuhua Primary School", "level": "primary", "lat": 1.336597, "lon": 103.736089}, {"name": "Fuhua Secondary School", "level": "secondary", "lat": 1.347014, "lon": 103.726521}, {"name": "Gan Eng Seng Primary School", "level": "primary", "lat": 1.285595, "lon": 103.815547}, {"name": "Gan Eng Seng School", "level": "secondary", "lat": 1.289071, "lon": 103.823734}, {"name": "Geylang Methodist School (primary)", "level": "primary", "lat": 1.318144, "lon": 103.883629}, {"name": "Geylang Methodist School (secondary)", "level": "secondary", "lat": 1.317649, "lon": 103.882661}, {"name": "Gongshang Primary School", "level": "primary", "lat": 1.357116, "lon": 103.949145}, {"name": "Greendale Primary School", "level": "primary", "lat": 1.396482, "lon": 103.912335}, {"name": "Greendale Secondary School", "level": "secondary", "lat": 1.39696, "lon": 103.9117}, {"name": "Greenridge Primary School", "level": "primary", "lat": 1.385889, "lon": 103.767794}, {"name": "Greenridge Secondary School", "level": "secondary", "lat": 1.3756, "lon": 103.763999}, {"name": "Greenwood Primary School", "level": "primary", "lat": 1.4399, "lon": 103.804726}, {"name": "Guangyang Secondary School", "level": "secondary", "lat": 1.344409, "lon": 103.850212}, {"name": "Hai Sing Catholic School", "level": "secondary", "lat": 1.374337, "lon": 103.954545}, {"name": "Haig Girls' School", "level": "primary", "lat": 1.311943, "lon": 103.902903}, {"name": "Henry Park Primary School", "level": "primary", "lat": 1.316676, "lon": 103.784296}, {"name": "Hillgrove Secondary School", "level": "secondary", "lat": 1.352736, "lon": 103.752986}, {"name": "Holy Innocents' High School", "level": "secondary", "lat": 1.371545, "lon": 103.896399}, {"name": "Holy Innocents' Primary School", "level": "primary", "lat": 1.367004, "lon": 103.894246}, {"name": "Hong Wen School", "level": "primary", "lat": 1.321756, "lon": 103.857734}, {"name": "Horizon Primary School", "level": "primary", "lat": 1.400009, "lon": 103.913072}, {"name": "Hougang Primary School", "level": "primary", "lat": 1.377382, "lon": 103.880805}, {"name": "Hougang Secondary School", "level": "secondary", "lat": 1.377629, "lon": 103.882539}, {"name": "Hua Yi Secondary School", "level": "secondary", "lat": 1.352344, "lon": 103.721832}, {"name": "Huamin Primary School", "level": "primary", "lat": 1.426973, "lon": 103.84424}, {"name": "Hwa Chong Institution", "level": "jc", "lat": 1.326358, "lon": 103.80329}, {"name": "Innova Primary School", "level": "primary", "lat": 1.429278, "lon": 103.790593}, {"name": "Jiemin Primary School", "level": "primary", "lat": 1.427606, "lon": 103.830401}, {"name": "Jing Shan Primary School", "level": "primary", "lat": 1.371964, "lon": 103.851764}, {"name": "Junyuan Primary School", "level": "primary", "lat": 1.347871, "lon": 103.939222}, {"name": "Junyuan Secondary School", "level": "secondary", "lat": 1.353613, "lon": 103.933886}, {"name": "Jurong Pioneer Junior College", "level": "jc", "lat": 1.384374, "lon": 103.754375}, {"name": "Jurong Primary School", "level": "primary", "lat": 1.348439, "lon": 103.733157}, {"name": "Jurong Secondary School", "level": "secondary", "lat": 1.33002, "lon": 103.723953}, {"name": "Jurong West Primary School", "level": "primary", "lat": 1.339713, "lon": 103.698744}, {"name": "Jurong West Secondary School", "level": "secondary", "lat": 1.335256, "lon": 103.702099}, {"name": "Jurongville Secondary School", "level": "secondary", "lat": 1.351289, "lon": 103.728908}, {"name": "Juying Secondary School", "level": "secondary", "lat": 1.338723, "lon": 103.68731}, {"name": "Keming Primary School", "level": "primary", "lat": 1.345063, "lon": 103.755923}, {"name": "Kent Ridge Secondary School", "level": "secondary", "lat": 1.301228, "lon": 103.76489}, {"name": "Kheng Cheng School", "level": "primary", "lat": 1.337338, "lon": 103.847149}, {"name": "Kong Hwa School", "level": "primary", "lat": 1.310997, "lon": 103.888352}, {"name": "Kranji Primary School", "level": "primary", "lat": 1.394185, "lon": 103.747412}, {"name": "Kranji Secondary School", "level": "secondary", "lat": 1.390051, "lon": 103.741191}, {"name": "Kuo Chuan Presbyterian Primary School", "level": "primary", "lat": 1.349398, "lon": 103.855018}, {"name": "Kuo Chuan Presbyterian Secondary School", "level": "secondary", "lat": 1.350171, "lon": 103.854984}, {"name": "Lakeside Primary School", "level": "primary", "lat": 1.338204, "lon": 103.71809}, {"name": "Lianhua Primary School", "level": "primary", "lat": 1.354163, "lon": 103.75413}, {"name": "Loyang View Secondary School", "level": "secondary", "lat": 1.366584, "lon": 103.956945}, {"name": "Maha Bodhi School", "level": "primary", "lat": 1.328471, "lon": 103.901299}, {"name": "Manjusri Secondary School", "level": "secondary", "lat": 1.327471, "lon": 103.90172}, {"name": "Maris Stella High School", "level": "mixed", "lat": 1.341392, "lon": 103.877741}, {"name": "Marsiling Primary School", "level": "primary", "lat": 1.433929, "lon": 103.773637}, {"name": "Marsiling Secondary School", "level": "secondary", "lat": 1.436644, "lon": 103.776008}, {"name": "Marymount Convent School", "level": "primary", "lat": 1.340438, "lon": 103.839812}, {"name": "Mayflower Primary School", "level": "primary", "lat": 1.376399, "lon": 103.843166}, {"name": "Mayflower Secondary School", "level": "secondary", "lat": 1.368273, "lon": 103.835361}, {"name": "Mee Toh School", "level": "primary", "lat": 1.394854, "lon": 103.908573}, {"name": "Meridian Primary School", "level": "primary", "lat": 1.375507, "lon": 103.934953}, {"name": "Meridian Secondary School", "level": "secondary", "lat": 1.367247, "lon": 103.948972}, {"name": "Methodist Girls' School (primary)", "level": "primary", "lat": 1.33293, "lon": 103.782963}, {"name": "Methodist Girls' School (secondary)", "level": "secondary", "lat": 1.332662, "lon": 103.783382}, {"name": "Millennia Institute", "level": "jc", "lat": 1.350319, "lon": 103.741594}, {"name": "Montfort Junior School", "level": "primary", "lat": 1.373624, "lon": 103.889741}, {"name": "Montfort Secondary School", "level": "secondary", "lat": 1.373961, "lon": 103.888928}, {"name": "Nan Chiau High School", "level": "secondary", "lat": 1.388796, "lon": 103.890004}, {"name": "Nan Chiau Primary School", "level": "primary", "lat": 1.392211, "lon": 103.891181}, {"name": "Nan Hua High School", "level": "secondary", "lat": 1.308095, "lon": 103.768561}, {"name": "Nan Hua Primary School", "level": "primary", "lat": 1.319196, "lon": 103.76118}, {"name": "Nanyang Girls' High School", "level": "secondary", "lat": 1.330583, "lon": 103.802421}, {"name": "Nanyang Junior College", "level": "jc", "lat": 1.350283, "lon": 103.866499}, {"name": "Nanyang Primary School", "level": "primary", "lat": 1.320847, "lon": 103.80775}, {"name": "National Junior College", "level": "jc", "lat": 1.330293, "lon": 103.804111}, {"name": "Naval Base Primary School", "level": "primary", "lat": 1.416292, "lon": 103.838858}, {"name": "Naval Base Secondary School", "level": "secondary", "lat": 1.419379, "lon": 103.83105}, {"name": "New Town Primary School", "level": "primary", "lat": 1.299811, "lon": 103.799965}, {"name": "New Town Secondary School", "level": "secondary", "lat": 1.309776, "lon": 103.773189}, {"name": "Ngee Ann Primary School", "level": "primary", "lat": 1.305532, "lon": 103.91757}, {"name": "Ngee Ann Secondary School", "level": "secondary", "lat": 1.354475, "lon": 103.956747}, {"name": "North Spring Primary School", "level": "primary", "lat": 1.387076, "lon": 103.903089}, {"name": "North View Primary School", "level": "primary", "lat": 1.427452, "lon": 103.848378}, {"name": "North Vista Primary School", "level": "primary", "lat": 1.382551, "lon": 103.896265}, {"name": "North Vista Secondary School", "level": "secondary", "lat": 1.381131, "lon": 103.899189}, {"name": "Northbrooks Secondary School", "level": "secondary", "lat": 1.420813, "lon": 103.845147}, {"name": "Northland Primary School", "level": "primary", "lat": 1.421304, "lon": 103.840793}, {"name": "Northland Secondary School", "level": "secondary", "lat": 1.435802, "lon": 103.840105}, {"name": "Northlight School", "level": "secondary", "lat": 1.3191, "lon": 103.85576}, {"name": "Northoaks Primary School", "level": "primary", "lat": 1.456731, "lon": 103.81366}, {"name": "Northshore Primary School", "level": "primary", "lat": 1.418423, "lon": 103.905147}, {"name": "NUS High School Of Mathematics And Science", "level": "jc", "lat": 1.306007, "lon": 103.770153}, {"name": "Oasis Primary School", "level": "primary", "lat": 1.404624, "lon": 103.911121}, {"name": "Opera Estate Primary School", "level": "primary", "lat": 1.319969, "lon": 103.923753}, {"name": "Orchid Park Secondary School", "level": "secondary", "lat": 1.41532, "lon": 103.837859}, {"name": "Outram Secondary School", "level": "secondary", "lat": 1.39775, "lon": 103.89123}, {"name": "Palm View Primary School", "level": "primary", "lat": 1.383841, "lon": 103.891215}, {"name": "Park View Primary School", "level": "primary", "lat": 1.378017, "lon": 103.939202}, {"name": "Pasir Ris Crest Secondary School", "level": "secondary", "lat": 1.372841, "lon": 103.959728}, {"name": "Pasir Ris Primary School", "level": "primary", "lat": 1.372451, "lon": 103.962923}, {"name": "Pasir Ris Secondary School", "level": "secondary", "lat": 1.354227, "lon": 103.948963}, {"name": "Paya Lebar Methodist Girls' School (primary)", "level": "primary", "lat": 1.349473, "lon": 103.884971}, {"name": "Paya Lebar Methodist Girls' School (secondary)", "level": "secondary", "lat": 1.350968, "lon": 103.88512}, {"name": "Pei Chun Public School", "level": "primary", "lat": 1.336779, "lon": 103.855341}, {"name": "Pei Hwa Presbyterian Primary School", "level": "primary", "lat": 1.338073, "lon": 103.776251}, {"name": "Pei Hwa Secondary School", "level": "secondary", "lat": 1.390375, "lon": 103.878462}, {"name": "Pei Tong Primary School", "level": "primary", "lat": 1.316665, "lon": 103.767439}, {"name": "Peicai Secondary School", "level": "secondary", "lat": 1.359516, "lon": 103.870011}, {"name": "Peirce Secondary School", "level": "secondary", "lat": 1.366659, "lon": 103.830216}, {"name": "Peiying Primary School", "level": "primary", "lat": 1.417233, "lon": 103.830417}, {"name": "Pioneer Primary School", "level": "primary", "lat": 1.354426, "lon": 103.732791}, {"name": "Poi Ching School", "level": "primary", "lat": 1.357651, "lon": 103.935246}, {"name": "Presbyterian High School", "level": "secondary", "lat": 1.382012, "lon": 103.843149}, {"name": "Princess Elizabeth Primary School", "level": "primary", "lat": 1.349191, "lon": 103.740719}, {"name": "Punggol Cove Primary School", "level": "primary", "lat": 1.411585, "lon": 103.898904}, {"name": "Punggol Green Primary School", "level": "primary", "lat": 1.401726, "lon": 103.898794}, {"name": "Punggol Primary School", "level": "primary", "lat": 1.378201, "lon": 103.894667}, {"name": "Punggol Secondary School", "level": "secondary", "lat": 1.402057, "lon": 103.909214}, {"name": "Punggol View Primary School", "level": "primary", "lat": 1.405053, "lon": 103.905299}, {"name": "Qifa Primary School", "level": "primary", "lat": 1.313266, "lon": 103.756629}, {"name": "Qihua Primary School", "level": "primary", "lat": 1.442036, "lon": 103.78834}, {"name": "Queenstown Primary School", "level": "primary", "lat": 1.295529, "lon": 103.807648}, {"name": "Queenstown Secondary School", "level": "secondary", "lat": 1.293521, "lon": 103.813191}, {"name": "Queensway Secondary School", "level": "secondary", "lat": 1.300223, "lon": 103.802207}, {"name": "Radin Mas Primary School", "level": "primary", "lat": 1.274897, "lon": 103.824116}, {"name": "Raffles Girls' Primary School", "level": "primary", "lat": 1.330042, "lon": 103.806398}, {"name": "Raffles Girls' School (secondary)", "level": "secondary", "lat": 1.342175, "lon": 103.843134}, {"name": "Raffles Institution", "level": "jc", "lat": 1.34629, "lon": 103.84362}, {"name": "Red Swastika School", "level": "primary", "lat": 1.333243, "lon": 103.934332}, {"name": "Regent Secondary School", "level": "secondary", "lat": 1.393279, "lon": 103.751034}, {"name": "River Valley High School", "level": "jc", "lat": 1.344078, "lon": 103.709022}, {"name": "River Valley Primary School", "level": "primary", "lat": 1.294223, "lon": 103.835815}, {"name": "Riverside Primary School", "level": "primary", "lat": 1.447004, "lon": 103.801889}, {"name": "Riverside Secondary School", "level": "secondary", "lat": 1.441102, "lon": 103.788308}, {"name": "Rivervale Primary School", "level": "primary", "lat": 1.393335, "lon": 103.904545}, {"name": "Rosyth School", "level": "primary", "lat": 1.372858, "lon": 103.874772}, {"name": "Rulang Primary School", "level": "primary", "lat": 1.346739, "lon": 103.718458}, {"name": "School Of Science And Technology, Singapore", "level": "secondary", "lat": 1.312928, "lon": 103.774012}, {"name": "School Of The Arts, Singapore", "level": "jc", "lat": 1.299351, "lon": 103.848675}, {"name": "Sembawang Primary School", "level": "primary", "lat": 1.445044, "lon": 103.821022}, {"name": "Sembawang Secondary School", "level": "secondary", "lat": 1.445315, "lon": 103.816843}, {"name": "Seng Kang Primary School", "level": "primary", "lat": 1.38925, "lon": 103.899528}, {"name": "Seng Kang Secondary School", "level": "secondary", "lat": 1.386597, "lon": 103.898365}, {"name": "Sengkang Green Primary School", "level": "primary", "lat": 1.392839, "lon": 103.875159}, {"name": "Serangoon Garden Secondary School", "level": "secondary", "lat": 1.369326, "lon": 103.86927}, {"name": "Serangoon Secondary School", "level": "secondary", "lat": 1.374655, "lon": 103.902139}, {"name": "Shuqun Primary School", "level": "primary", "lat": 1.34687, "lon": 103.721559}, {"name": "Si Ling Primary School", "level": "primary", "lat": 1.4327, "lon": 103.785779}, {"name": "Singapore Chinese Girls' Primary School", "level": "primary", "lat": 1.320634, "lon": 103.828165}, {"name": "Singapore Chinese Girls' School", "level": "secondary", "lat": 1.320634, "lon": 103.828165}, {"name": "Singapore Sports School", "level": "jc", "lat": 1.426411, "lon": 103.789445}, {"name": "South View Primary School", "level": "primary", "lat": 1.381431, "lon": 103.747154}, {"name": "Spectra Secondary School", "level": "secondary", "lat": 1.437038, "lon": 103.8041}, {"name": "Springdale Primary School", "level": "primary", "lat": 1.394958, "lon": 103.889897}, {"name": "Springfield Secondary School", "level": "secondary", "lat": 1.349573, "lon": 103.930354}, {"name": "St Andrew's Junior College", "level": "jc", "lat": 1.333065, "lon": 103.863576}, {"name": "St Andrew's School (junior)", "level": "primary", "lat": 1.331403, "lon": 103.865117}, {"name": "St Andrew's School (secondary)", "level": "secondary", "lat": 1.330694, "lon": 103.866249}, {"name": "St. Anthony's Canossian Primary School", "level": "primary", "lat": 1.334725, "lon": 103.941235}, {"name": "St. Anthony's Canossian Secondary School", "level": "secondary", "lat": 1.334663, "lon": 103.941977}, {"name": "St. Anthony's Primary School", "level": "primary", "lat": 1.364161, "lon": 103.749252}, {"name": "St. Gabriel's Primary School", "level": "primary", "lat": 1.349308, "lon": 103.86231}, {"name": "St. Gabriel's Secondary School", "level": "secondary", "lat": 1.346488, "lon": 103.876094}, {"name": "St. Hilda's Primary School", "level": "primary", "lat": 1.34968, "lon": 103.937016}, {"name": "St. Hilda's Secondary School", "level": "secondary", "lat": 1.349739, "lon": 103.937608}, {"name": "St. Joseph's Institution", "level": "jc", "lat": 1.323653, "lon": 103.828499}, {"name": "St. Joseph's Institution Junior", "level": "primary", "lat": 1.317815, "lon": 103.845633}, {"name": "St. Margaret's School (primary)", "level": "primary", "lat": 1.303904, "lon": 103.845955}, {"name": "St. Margaret's School (secondary)", "level": "secondary", "lat": 1.320068, "lon": 103.809951}, {"name": "St. Patrick's School", "level": "secondary", "lat": 1.307883, "lon": 103.917638}, {"name": "St. Stephen's School", "level": "primary", "lat": 1.31879, "lon": 103.917258}, {"name": "Swiss Cottage Secondary School", "level": "secondary", "lat": 1.364717, "lon": 103.750396}, {"name": "Tampines Meridian Junior College", "level": "jc", "lat": 1.376333, "lon": 103.936991}, {"name": "Tampines North Primary School", "level": "primary", "lat": 1.360488, "lon": 103.948769}, {"name": "Tampines Primary School", "level": "primary", "lat": 1.349779, "lon": 103.944005}, {"name": "Tampines Secondary School", "level": "secondary", "lat": 1.349261, "lon": 103.944264}, {"name": "Tanjong Katong Girls' School", "level": "secondary", "lat": 1.307563, "lon": 103.896107}, {"name": "Tanjong Katong Primary School", "level": "primary", "lat": 1.305258, "lon": 103.900163}, {"name": "Tanjong Katong Secondary School", "level": "secondary", "lat": 1.308735, "lon": 103.897225}, {"name": "Tao Nan School", "level": "primary", "lat": 1.305285, "lon": 103.911553}, {"name": "Teck Ghee Primary School", "level": "primary", "lat": 1.36565, "lon": 103.85101}, {"name": "Teck Whye Primary School", "level": "primary", "lat": 1.383887, "lon": 103.753925}, {"name": "Telok Kurau Primary School", "level": "primary", "lat": 1.331096, "lon": 103.911005}, {"name": "Temasek Junior College", "level": "jc", "lat": 1.35728, "lon": 103.956186}, {"name": "Temasek Primary School", "level": "primary", "lat": 1.317685, "lon": 103.945505}, {"name": "Temasek Secondary School", "level": "secondary", "lat": 1.315917, "lon": 103.947564}, {"name": "Townsville Primary School", "level": "primary", "lat": 1.359946, "lon": 103.853769}, {"name": "Unity Primary School", "level": "primary", "lat": 1.402783, "lon": 103.746801}, {"name": "Unity Secondary School", "level": "secondary", "lat": 1.400015, "lon": 103.746021}, {"name": "Valour Primary School", "level": "primary", "lat": 1.407442, "lon": 103.898762}, {"name": "Victoria Junior College", "level": "jc", "lat": 1.306702, "lon": 103.919983}, {"name": "Victoria School", "level": "secondary", "lat": 1.308713, "lon": 103.927981}, {"name": "Waterway Primary School", "level": "primary", "lat": 1.398893, "lon": 103.918586}, {"name": "Wellington Primary School", "level": "primary", "lat": 1.451891, "lon": 103.822342}, {"name": "West Grove Primary School", "level": "primary", "lat": 1.344712, "lon": 103.698964}, {"name": "West Spring Primary School", "level": "primary", "lat": 1.388966, "lon": 103.766256}, {"name": "West Spring Secondary School", "level": "secondary", "lat": 1.387823, "lon": 103.760129}, {"name": "West View Primary School", "level": "primary", "lat": 1.383785, "lon": 103.760273}, {"name": "Westwood Primary School", "level": "primary", "lat": 1.347155, "lon": 103.700527}, {"name": "Westwood Secondary School", "level": "secondary", "lat": 1.353737, "lon": 103.701772}, {"name": "White Sands Primary School", "level": "primary", "lat": 1.365636, "lon": 103.960862}, {"name": "Whitley Secondary School", "level": "secondary", "lat": 1.355052, "lon": 103.842552}, {"name": "Woodgrove Primary School", "level": "primary", "lat": 1.432736, "lon": 103.79023}, {"name": "Woodgrove Secondary School", "level": "secondary", "lat": 1.428318, "lon": 103.796048}, {"name": "Woodlands Primary School", "level": "primary", "lat": 1.436583, "lon": 103.791791}, {"name": "Woodlands Ring Primary School", "level": "primary", "lat": 1.434852, "lon": 103.797414}, {"name": "Woodlands Ring Secondary School", "level": "secondary", "lat": 1.430705, "lon": 103.777626}, {"name": "Woodlands Secondary School", "level": "secondary", "lat": 1.439125, "lon": 103.774586}, {"name": "Xinghua Primary School", "level": "primary", "lat": 1.357997, "lon": 103.890216}, {"name": "Xingnan Primary School", "level": "primary", "lat": 1.342706, "lon": 103.687588}, {"name": "Xinmin Primary School", "level": "primary", "lat": 1.371768, "lon": 103.88281}, {"name": "Xinmin Secondary School", "level": "secondary", "lat": 1.372559, "lon": 103.883052}, {"name": "Xishan Primary School", "level": "primary", "lat": 1.433472, "lon": 103.837755}, {"name": "Yangzheng Primary School", "level": "primary", "lat": 1.348646, "lon": 103.868596}, {"name": "Yew Tee Primary School", "level": "primary", "lat": 1.396726, "lon": 103.751818}, {"name": "Yio Chu Kang Primary School", "level": "primary", "lat": 1.377933, "lon": 103.885644}, {"name": "Yio Chu Kang Secondary School", "level": "secondary", "lat": 1.377976, "lon": 103.842137}, {"name": "Yishun Innova Junior College", "level": "jc", "lat": 1.424267, "lon": 103.830032}, {"name": "Yishun Primary School", "level": "primary", "lat": 1.433976, "lon": 103.834051}, {"name": "Yishun Secondary School", "level": "secondary", "lat": 1.428133, "lon": 103.828764}, {"name": "Yishun Town Secondary School", "level": "secondary", "lat": 1.432322, "lon": 103.838094}, {"name": "Yu Neng Primary School", "level": "primary", "lat": 1.33398, "lon": 103.932015}, {"name": "Yuan Ching Secondary School", "level": "secondary", "lat": 1.342006, "lon": 103.720899}, {"name": "Yuhua Primary School", "level": "primary", "lat": 1.34292, "lon": 103.740861}, {"name": "Yuhua Secondary School", "level": "secondary", "lat": 1.347186, "lon": 103.722687}, {"name": "Yumin Primary School", "level": "primary", "lat": 1.351316, "lon": 103.950551}, {"name": "Yusof Ishak Secondary School", "level": "secondary", "lat": 1.406937, "lon": 103.896275}, {"name": "Yuying Secondary School", "level": "secondary", "lat": 1.357136, "lon": 103.890195}, {"name": "Zhangde Primary School", "level": "primary", "lat": 1.284212, "lon": 103.825952}, {"name": "Zhenghua Primary School", "level": "primary", "lat": 1.379429, "lon": 103.769703}, {"name": "Zhenghua Secondary School", "level": "secondary", "lat": 1.388366, "lon": 103.765511}, {"name": "Zhonghua Primary School", "level": "primary", "lat": 1.360261, "lon": 103.869713}, {"name": "Zhonghua Secondary School", "level": "secondary", "lat": 1.348407, "lon": 103.86943}, {"name": "Nanyang Polytechnic", "level": "tertiary", "lat": 1.377819, "lon": 103.848423}, {"name": "Ngee Ann Polytechnic", "level": "tertiary", "lat": 1.332481, "lon": 103.773306}, {"name": "Singapore Polytechnic", "level": "tertiary", "lat": 1.310946, "lon": 103.772769}, {"name": "Republic Polytechnic", "level": "tertiary", "lat": 1.444968, "lon": 103.785362}, {"name": "Temasek Polytechnic", "level": "tertiary", "lat": 1.347939, "lon": 103.92884}, {"name": "ITE College Central", "level": "tertiary", "lat": 1.377892, "lon": 103.856412}, {"name": "ITE College East", "level": "tertiary", "lat": 1.334387, "lon": 103.955051}, {"name": "ITE College West", "level": "tertiary", "lat": 1.375275, "lon": 103.752407}, {"name": "National University of Singapore", "level": "tertiary", "lat": 1.2966, "lon": 103.7764}, {"name": "Nanyang Technological University", "level": "tertiary", "lat": 1.3483, "lon": 103.6831}, {"name": "Singapore Management University", "level": "tertiary", "lat": 1.296847, "lon": 103.852208}, {"name": "Singapore University of Technology and Design", "level": "tertiary", "lat": 1.340172, "lon": 103.96286}, {"name": "Singapore Institute of Technology", "level": "tertiary", "lat": 1.413307, "lon": 103.912964}, {"name": "Singapore University of Social Sciences", "level": "tertiary", "lat": 1.328326, "lon": 103.775805}]